[
    {
        "id": 0,
        "name": "Rusinowa Polana",
        "longitude": 50.032975,
        "latitude": 18.800527
    },
    {
        "id": 1,
        "name": "Łysa Polana",
        "longitude": 50.08702,
        "latitude": 20.488659
    },
    {
        "id": 2,
        "name": "Gęsia Szyja",
        "longitude": 50.005921,
        "latitude": 18.965181
    },
    {
        "id": 3,
        "name": "Rówień Waksmundzka",
        "longitude": 50.206888,
        "latitude": 17.404295
    },
    {
        "id": 4,
        "name": "Psia Trawka",
        "longitude": 50.613438,
        "latitude": 19.065364
    },
    {
        "id": 5,
        "name": "Wodogrzmoty Mickiewicza",
        "longitude": 50.028079,
        "latitude": 16.901167
    },
    {
        "id": 6,
        "name": "Schronisko PTTK nad Morskim Okiem",
        "longitude": 49.952028,
        "latitude": 16.357878
    },
    {
        "id": 7,
        "name": "Czarny Staw nad Morskim Okiem",
        "longitude": 50.273068,
        "latitude": 22.293678
    },
    {
        "id": 8,
        "name": "Dolina za Mnichem",
        "longitude": 50.210191,
        "latitude": 16.722985
    },
    {
        "id": 9,
        "name": "Szpiglasowa Przełęcz",
        "longitude": 49.78257,
        "latitude": 16.388554
    },
    {
        "id": 10,
        "name": "Schronisko PTTK w Dolinie Pięciu Stawów Polskich",
        "longitude": 50.465513,
        "latitude": 20.192432
    },
    {
        "id": 11,
        "name": "Siklawa",
        "longitude": 50.337198,
        "latitude": 18.979093
    },
    {
        "id": 12,
        "name": "Kozi Wierch",
        "longitude": 50.33875,
        "latitude": 21.755458
    },
    {
        "id": 13,
        "name": "Kozia Przełęcz",
        "longitude": 50.523417,
        "latitude": 21.837682
    },
    {
        "id": 14,
        "name": "Przełęcz Zawrat",
        "longitude": 49.762841,
        "latitude": 20.408704
    },
    {
        "id": 15,
        "name": "Świnica",
        "longitude": 49.743701,
        "latitude": 18.153402
    },
    {
        "id": 16,
        "name": "Świnicka Przełęcz",
        "longitude": 49.969999,
        "latitude": 17.192217
    },
    {
        "id": 17,
        "name": "Kozia Dolinka",
        "longitude": 50.749929,
        "latitude": 16.520457
    },
    {
        "id": 18,
        "name": "Żleb Kulczyńskiego",
        "longitude": 49.936332,
        "latitude": 19.587628
    },
    {
        "id": 19,
        "name": "Skrajny Granat",
        "longitude": 50.596358,
        "latitude": 19.641857
    },
    {
        "id": 20,
        "name": "Przełęcz Krzyżne",
        "longitude": 49.630144,
        "latitude": 20.777019
    },
    {
        "id": 21,
        "name": "Przełęcz Krab",
        "longitude": 49.639203,
        "latitude": 18.54531
    },
    {
        "id": 22,
        "name": "Dwoiśniak",
        "longitude": 50.204542,
        "latitude": 21.590143
    },
    {
        "id": 23,
        "name": "Schronisko PTTK na Hali Gąsienicowej",
        "longitude": 50.381043,
        "latitude": 17.616347
    },
    {
        "id": 24,
        "name": "Droga \"Pod Reglami\"",
        "longitude": 50.532181,
        "latitude": 19.71401
    },
    {
        "id": 25,
        "name": "Polana Biały Potok",
        "longitude": 49.670505,
        "latitude": 18.250971
    },
    {
        "id": 26,
        "name": "Polana Huciska",
        "longitude": 50.135471,
        "latitude": 16.722798
    },
    {
        "id": 27,
        "name": "Niżnia Kominiarska Polana",
        "longitude": 50.774054,
        "latitude": 18.896104
    },
    {
        "id": 28,
        "name": "Schronisko PTTK na Polanie Chochołowskiej",
        "longitude": 50.040728,
        "latitude": 20.649755
    },
    {
        "id": 29,
        "name": "Trzydniowiański Wierch",
        "longitude": 50.185892,
        "latitude": 19.13488
    },
    {
        "id": 30,
        "name": "Jarząbczy Wierch",
        "longitude": 50.066019,
        "latitude": 21.829488
    },
    {
        "id": 31,
        "name": "Wołowiec",
        "longitude": 49.824814,
        "latitude": 19.719322
    },
    {
        "id": 32,
        "name": "Grześ",
        "longitude": 49.763631,
        "latitude": 20.585175
    },
    {
        "id": 33,
        "name": "Starorobociański Wierch",
        "longitude": 50.315082,
        "latitude": 20.572999
    },
    {
        "id": 34,
        "name": "Siwa Przełęcz",
        "longitude": 50.057182,
        "latitude": 18.432461
    },
    {
        "id": 35,
        "name": "Starorobociańska Rówień",
        "longitude": 50.764044,
        "latitude": 16.936198
    },
    {
        "id": 36,
        "name": "Iwaniacka Przełęcz",
        "longitude": 49.573379,
        "latitude": 18.405224
    },
    {
        "id": 37,
        "name": "Wyżnia Kira Miętusia",
        "longitude": 49.821447,
        "latitude": 22.059952
    },
    {
        "id": 38,
        "name": "Lodowe Źródło",
        "longitude": 49.768956,
        "latitude": 21.211205
    },
    {
        "id": 39,
        "name": "Polana Pisana",
        "longitude": 49.549063,
        "latitude": 19.419563
    },
    {
        "id": 40,
        "name": "Schronisko PTTK na Hali Ornak",
        "longitude": 50.183951,
        "latitude": 18.035541
    },
    {
        "id": 41,
        "name": "Wyżnia Tomanowa Polana",
        "longitude": 50.573522,
        "latitude": 21.874658
    },
    {
        "id": 42,
        "name": "Chuda Przełączka",
        "longitude": 50.054984,
        "latitude": 21.339679
    },
    {
        "id": 43,
        "name": "Krzesanica",
        "longitude": 49.828999,
        "latitude": 20.374189
    },
    {
        "id": 44,
        "name": "Przełęcz Przysłop Miętusi",
        "longitude": 50.134879,
        "latitude": 16.899523
    },
    {
        "id": 45,
        "name": "Kobylarz",
        "longitude": 50.265005,
        "latitude": 16.727307
    },
    {
        "id": 46,
        "name": "Wielka Polana w Dolinie Małej Łąki",
        "longitude": 50.376484,
        "latitude": 21.125247
    },
    {
        "id": 47,
        "name": "Kopa Kondracka",
        "longitude": 50.578727,
        "latitude": 16.593846
    },
    {
        "id": 48,
        "name": "Przełęcz Kondracka",
        "longitude": 50.156185,
        "latitude": 21.55174
    },
    {
        "id": 49,
        "name": "Przełęcz w Grzybowcu",
        "longitude": 50.556855,
        "latitude": 17.4084
    },
    {
        "id": 50,
        "name": "Polana Strążyska",
        "longitude": 50.654282,
        "latitude": 20.158203
    },
    {
        "id": 51,
        "name": "Czerwona Przełęcz",
        "longitude": 50.184203,
        "latitude": 18.166426
    },
    {
        "id": 52,
        "name": "Przełęcz Białego",
        "longitude": 49.613344,
        "latitude": 17.652161
    },
    {
        "id": 53,
        "name": "Schronisko PTTK na Hali Kondratowej",
        "longitude": 50.543326,
        "latitude": 21.987124
    },
    {
        "id": 54,
        "name": "Kasprowy Wierch",
        "longitude": 49.903978,
        "latitude": 16.859044
    },
    {
        "id": 55,
        "name": "Schronisko PTTK na Hali Gąsienicowej",
        "longitude": 49.774208,
        "latitude": 17.273479
    },
    {
        "id": 56,
        "name": "Klasztor",
        "longitude": 49.806614,
        "latitude": 17.202031
    },
    {
        "id": 57,
        "name": "Kużnice",
        "longitude": 50.088823,
        "latitude": 18.704251
    },
    {
        "id": 58,
        "name": "Nosal",
        "longitude": 49.752696,
        "latitude": 19.602995
    },
    {
        "id": 59,
        "name": "Olczyska Polana",
        "longitude": 49.831451,
        "latitude": 18.57459
    },
    {
        "id": 60,
        "name": "Toporowa Cyrhla",
        "longitude": 50.653462,
        "latitude": 20.643823
    },
    {
        "id": 61,
        "name": "Magura Witowska TPG",
        "longitude": 50.544107,
        "latitude": 19.511631
    },
    {
        "id": 62,
        "name": "Palenica Kościeliska",
        "longitude": 50.645131,
        "latitude": 17.289032
    },
    {
        "id": 63,
        "name": "Butorowy Wierch",
        "longitude": 50.122162,
        "latitude": 16.428062
    },
    {
        "id": 64,
        "name": "Gubałówka",
        "longitude": 50.127282,
        "latitude": 19.145965
    },
    {
        "id": 65,
        "name": "Eliaszówka",
        "longitude": 49.634455,
        "latitude": 17.017933
    },
    {
        "id": 66,
        "name": "Szaflary",
        "longitude": 50.382309,
        "latitude": 19.329516
    },
    {
        "id": 67,
        "name": "Rafaczyńska Grapa",
        "longitude": 50.439707,
        "latitude": 22.127095
    },
    {
        "id": 68,
        "name": "Poronin",
        "longitude": 49.721247,
        "latitude": 20.249331
    },
    {
        "id": 69,
        "name": "Galicowa Grapa",
        "longitude": 50.519315,
        "latitude": 17.189147
    },
    {
        "id": 70,
        "name": "Bukowina Tatrzańska - Klin",
        "longitude": 50.172471,
        "latitude": 20.794558
    },
    {
        "id": 71,
        "name": "Głodówka",
        "longitude": 49.875393,
        "latitude": 21.992524
    },
    {
        "id": 72,
        "name": "Bukowina Tatrzańska Dolna",
        "longitude": 49.842374,
        "latitude": 20.707961
    },
    {
        "id": 73,
        "name": "Dzięgielów - Zamek",
        "longitude": 50.676393,
        "latitude": 16.953889
    },
    {
        "id": 74,
        "name": "Jasieniowa",
        "longitude": 50.535963,
        "latitude": 19.462012
    },
    {
        "id": 75,
        "name": "Schronisko PTTK Tuł",
        "longitude": 50.382794,
        "latitude": 16.354099
    },
    {
        "id": 76,
        "name": "Ostry",
        "longitude": 49.562692,
        "latitude": 17.973694
    },
    {
        "id": 77,
        "name": "Mała Czantoria",
        "longitude": 50.672813,
        "latitude": 17.540949
    },
    {
        "id": 78,
        "name": "Czantoria Wielka",
        "longitude": 49.995209,
        "latitude": 19.062249
    },
    {
        "id": 79,
        "name": "Wisła - Jawornik",
        "longitude": 50.548335,
        "latitude": 21.159255
    },
    {
        "id": 80,
        "name": "Soszów Wielki",
        "longitude": 49.776763,
        "latitude": 16.408199
    },
    {
        "id": 81,
        "name": "Schronisko PTTK Stożek",
        "longitude": 49.925458,
        "latitude": 17.518302
    },
    {
        "id": 82,
        "name": "Wisła - Jurzyków",
        "longitude": 50.17418,
        "latitude": 21.179267
    },
    {
        "id": 83,
        "name": "Wisła - Gościejów",
        "longitude": 50.466346,
        "latitude": 20.071132
    },
    {
        "id": 84,
        "name": "Wisła Nowa Osada",
        "longitude": 49.785584,
        "latitude": 16.411092
    },
    {
        "id": 85,
        "name": "Kozińce",
        "longitude": 50.177983,
        "latitude": 20.937381
    },
    {
        "id": 86,
        "name": "Przełęcz Kubalonka",
        "longitude": 50.719921,
        "latitude": 16.343566
    },
    {
        "id": 87,
        "name": "Mraźnica",
        "longitude": 50.127485,
        "latitude": 22.156391
    },
    {
        "id": 88,
        "name": "Kiczory",
        "longitude": 49.592987,
        "latitude": 17.433997
    },
    {
        "id": 89,
        "name": "Jaworzynka - Trzycatek",
        "longitude": 49.896157,
        "latitude": 22.249234
    },
    {
        "id": 90,
        "name": "Wierch Czadeczka",
        "longitude": 49.554296,
        "latitude": 20.607208
    },
    {
        "id": 91,
        "name": "Wielka Zabawa",
        "longitude": 50.403882,
        "latitude": 22.346707
    },
    {
        "id": 92,
        "name": "Przełęcz Koniakowska",
        "longitude": 50.445839,
        "latitude": 16.609098
    },
    {
        "id": 93,
        "name": "Koniaków",
        "longitude": 49.848774,
        "latitude": 19.856366
    },
    {
        "id": 94,
        "name": "Łączyna",
        "longitude": 49.876707,
        "latitude": 17.406632
    },
    {
        "id": 95,
        "name": "Kamesznica Dolna",
        "longitude": 50.496787,
        "latitude": 17.027966
    },
    {
        "id": 96,
        "name": "Kamesznica Złatna",
        "longitude": 49.693799,
        "latitude": 17.094407
    },
    {
        "id": 97,
        "name": "Schronisko PTTK Przysłop",
        "longitude": 50.106536,
        "latitude": 20.470272
    },
    {
        "id": 98,
        "name": "Wisła Czarne",
        "longitude": 50.060288,
        "latitude": 16.730367
    },
    {
        "id": 99,
        "name": "Wisła Czarne DW PTTK",
        "longitude": 50.495539,
        "latitude": 20.087585
    },
    {
        "id": 100,
        "name": "Barania Góra",
        "longitude": 50.297897,
        "latitude": 20.89555
    },
    {
        "id": 101,
        "name": "Magurka Wiślańska",
        "longitude": 50.72962,
        "latitude": 20.307586
    },
    {
        "id": 102,
        "name": "Magurka Radziechowska",
        "longitude": 50.309611,
        "latitude": 21.403421
    },
    {
        "id": 103,
        "name": "Grojec",
        "longitude": 50.609216,
        "latitude": 21.458859
    },
    {
        "id": 104,
        "name": "Zielony Kopiec",
        "longitude": 50.680777,
        "latitude": 16.777035
    },
    {
        "id": 105,
        "name": "Malinowska Skala",
        "longitude": 50.148018,
        "latitude": 18.576341
    },
    {
        "id": 106,
        "name": "Smerekowiec",
        "longitude": 49.786229,
        "latitude": 21.241351
    },
    {
        "id": 107,
        "name": "Trzy Kopce Wiślańskie",
        "longitude": 50.345328,
        "latitude": 21.103888
    },
    {
        "id": 108,
        "name": "Orłowa",
        "longitude": 49.554756,
        "latitude": 17.318614
    },
    {
        "id": 109,
        "name": "Schronisko PTTK Równica",
        "longitude": 50.579486,
        "latitude": 19.240569
    },
    {
        "id": 110,
        "name": "Górki Wielkie",
        "longitude": 50.64659,
        "latitude": 16.773185
    },
    {
        "id": 111,
        "name": "Łazek",
        "longitude": 49.736981,
        "latitude": 17.705461
    },
    {
        "id": 112,
        "name": "Schronisko PTTK Błatnia",
        "longitude": 49.609141,
        "latitude": 16.402553
    },
    {
        "id": 113,
        "name": "Jezioro w dolinie Wapiennicy",
        "longitude": 49.564906,
        "latitude": 19.979356
    },
    {
        "id": 114,
        "name": "Stary Groń",
        "longitude": 50.172267,
        "latitude": 21.381291
    },
    {
        "id": 115,
        "name": "Przełęcz Salmopolska",
        "longitude": 50.028299,
        "latitude": 21.673318
    },
    {
        "id": 116,
        "name": "Kotarz",
        "longitude": 49.917074,
        "latitude": 21.574084
    },
    {
        "id": 117,
        "name": "Schronisko PTTK Skrzyczne",
        "longitude": 50.286012,
        "latitude": 20.594782
    },
    {
        "id": 118,
        "name": "Przełęcz Karkoszonka",
        "longitude": 50.679632,
        "latitude": 19.570514
    },
    {
        "id": 119,
        "name": "Klimczok",
        "longitude": 50.555085,
        "latitude": 18.201968
    },
    {
        "id": 120,
        "name": "Schronisko PTTK Klimczok",
        "longitude": 50.033719,
        "latitude": 17.052516
    },
    {
        "id": 121,
        "name": "Meszna",
        "longitude": 50.155754,
        "latitude": 18.291198
    },
    {
        "id": 122,
        "name": "Schronisko PTTK Szyndzielnia",
        "longitude": 49.655681,
        "latitude": 17.188863
    },
    {
        "id": 123,
        "name": "Mikuszowice Śląskie",
        "longitude": 50.560221,
        "latitude": 17.51044
    },
    {
        "id": 124,
        "name": "Kozia Góra",
        "longitude": 50.070605,
        "latitude": 17.453014
    },
    {
        "id": 125,
        "name": "Przełęcz Kołowrót",
        "longitude": 50.263115,
        "latitude": 16.365793
    },
    {
        "id": 126,
        "name": "Rachowiec",
        "longitude": 50.105866,
        "latitude": 19.976596
    },
    {
        "id": 127,
        "name": "Bór",
        "longitude": 49.965643,
        "latitude": 17.015929
    },
    {
        "id": 128,
        "name": "Ożna",
        "longitude": 50.650941,
        "latitude": 16.22523
    },
    {
        "id": 129,
        "name": "Łysica",
        "longitude": 50.691848,
        "latitude": 18.942336
    },
    {
        "id": 130,
        "name": "Magura",
        "longitude": 50.612916,
        "latitude": 18.783391
    },
    {
        "id": 131,
        "name": "Schronisko PTTK Wielka Racza",
        "longitude": 50.63264,
        "latitude": 18.646857
    },
    {
        "id": 132,
        "name": "Schronisko PTTK na Przełęczy Przegibek",
        "longitude": 50.65806,
        "latitude": 16.77034
    },
    {
        "id": 133,
        "name": "Rycerki",
        "longitude": 50.126412,
        "latitude": 21.524874
    },
    {
        "id": 134,
        "name": "Młada Hora",
        "longitude": 49.601941,
        "latitude": 17.049026
    },
    {
        "id": 135,
        "name": "Urówka",
        "longitude": 50.580494,
        "latitude": 18.353572
    },
    {
        "id": 136,
        "name": "Wielka Rycerzowa",
        "longitude": 50.38299,
        "latitude": 21.50747
    },
    {
        "id": 137,
        "name": "Bacówka PTTK na Rycerzowej",
        "longitude": 50.497847,
        "latitude": 22.231092
    },
    {
        "id": 138,
        "name": "Muńcuł",
        "longitude": 49.756996,
        "latitude": 16.389513
    },
    {
        "id": 139,
        "name": "&nbsp;Bednarów Beskid",
        "longitude": 50.530857,
        "latitude": 18.282335
    },
    {
        "id": 140,
        "name": "Jaworzyna",
        "longitude": 50.206982,
        "latitude": 20.378865
    },
    {
        "id": 141,
        "name": "Soblówka",
        "longitude": 50.665508,
        "latitude": 16.610885
    },
    {
        "id": 142,
        "name": "Glinka",
        "longitude": 50.642362,
        "latitude": 19.592033
    },
    {
        "id": 143,
        "name": "Bacówka PTTK Krawców Wierch",
        "longitude": 49.790272,
        "latitude": 18.675422
    },
    {
        "id": 144,
        "name": "Hala Redykalna",
        "longitude": 50.607852,
        "latitude": 16.693091
    },
    {
        "id": 145,
        "name": "Sucha Góra",
        "longitude": 49.953857,
        "latitude": 17.715246
    },
    {
        "id": 146,
        "name": "Schronisko PTTK na Hali Boraczej",
        "longitude": 49.982963,
        "latitude": 17.48679
    },
    {
        "id": 147,
        "name": "Schronisko PTTK Hala Lipowska",
        "longitude": 50.029744,
        "latitude": 16.599662
    },
    {
        "id": 148,
        "name": "Schronisko PTTK Hala Rysianka",
        "longitude": 49.73778,
        "latitude": 18.307256
    },
    {
        "id": 149,
        "name": "Romanka",
        "longitude": 50.322282,
        "latitude": 17.684956
    },
    {
        "id": 150,
        "name": "Sopotnia Wielka - Kolonia",
        "longitude": 49.562355,
        "latitude": 21.433066
    },
    {
        "id": 151,
        "name": "Słowianka",
        "longitude": 50.291212,
        "latitude": 20.838435
    },
    {
        "id": 152,
        "name": "Kiczora",
        "longitude": 49.638968,
        "latitude": 19.919822
    },
    {
        "id": 153,
        "name": "Grojec",
        "longitude": 50.430032,
        "latitude": 17.189708
    },
    {
        "id": 154,
        "name": "Jastrzębica",
        "longitude": 50.093384,
        "latitude": 20.012242
    },
    {
        "id": 155,
        "name": "Pilsko",
        "longitude": 50.730491,
        "latitude": 21.828552
    },
    {
        "id": 156,
        "name": "Schronisko PTTK na Hali Miziowej",
        "longitude": 50.116691,
        "latitude": 18.546868
    },
    {
        "id": 157,
        "name": "Kamienna",
        "longitude": 50.683323,
        "latitude": 20.026712
    },
    {
        "id": 158,
        "name": "Przełęcz Przysłopy",
        "longitude": 50.515407,
        "latitude": 21.599211
    },
    {
        "id": 159,
        "name": "Przełęcz Glinne",
        "longitude": 49.608,
        "latitude": 20.562935
    },
    {
        "id": 160,
        "name": "Beskid Korbielowski",
        "longitude": 50.035672,
        "latitude": 16.506731
    },
    {
        "id": 161,
        "name": "Przełęcz pomiędzy Beskidem Korbielowskim i Beskidem Krzyżanowskim",
        "longitude": 50.417755,
        "latitude": 17.699447
    },
    {
        "id": 162,
        "name": "Przyborowiec",
        "longitude": 50.743677,
        "latitude": 22.125793
    },
    {
        "id": 163,
        "name": "Jaworzyna",
        "longitude": 50.283819,
        "latitude": 16.626561
    },
    {
        "id": 164,
        "name": "Moczarki",
        "longitude": 50.586305,
        "latitude": 21.595455
    },
    {
        "id": 165,
        "name": "Mędralowa",
        "longitude": 50.76849,
        "latitude": 19.217498
    },
    {
        "id": 166,
        "name": "Hala Kamińskiego",
        "longitude": 50.066672,
        "latitude": 19.549909
    },
    {
        "id": 167,
        "name": "Przełęcz Jałowiecka",
        "longitude": 49.773508,
        "latitude": 16.572697
    },
    {
        "id": 168,
        "name": "Przełęcz Klekociny",
        "longitude": 49.70883,
        "latitude": 17.968497
    },
    {
        "id": 169,
        "name": "Lachów Groń",
        "longitude": 50.273433,
        "latitude": 20.890962
    },
    {
        "id": 170,
        "name": "Czerniawa Sucha",
        "longitude": 50.595905,
        "latitude": 18.453865
    },
    {
        "id": 171,
        "name": "Jałowiec",
        "longitude": 49.962352,
        "latitude": 19.783267
    },
    {
        "id": 172,
        "name": "Przełęcz Kolędówka",
        "longitude": 50.210896,
        "latitude": 20.180237
    },
    {
        "id": 173,
        "name": "Magurka nad Suchą",
        "longitude": 50.186381,
        "latitude": 21.50915
    },
    {
        "id": 174,
        "name": "Czatoża",
        "longitude": 49.794611,
        "latitude": 21.831373
    },
    {
        "id": 175,
        "name": "Wilczna",
        "longitude": 50.279699,
        "latitude": 18.548795
    },
    {
        "id": 176,
        "name": "Markowa",
        "longitude": 50.561604,
        "latitude": 17.88854
    },
    {
        "id": 177,
        "name": "Schronisko PTTK Markowe Szczawiny",
        "longitude": 50.777004,
        "latitude": 21.600045
    },
    {
        "id": 178,
        "name": "Mała Babia Góra",
        "longitude": 50.729739,
        "latitude": 16.788015
    },
    {
        "id": 179,
        "name": "Babia Góra -",
        "longitude": 50.648465,
        "latitude": 20.049936
    },
    {
        "id": 180,
        "name": "Sokolica",
        "longitude": 50.448416,
        "latitude": 20.763743
    },
    {
        "id": 181,
        "name": "Sulowa Cyrhla",
        "longitude": 50.517836,
        "latitude": 20.397971
    },
    {
        "id": 182,
        "name": "Lajkonik",
        "longitude": 50.201327,
        "latitude": 19.257093
    },
    {
        "id": 183,
        "name": "Przełęcz Krowiarki",
        "longitude": 50.283415,
        "latitude": 19.355627
    },
    {
        "id": 184,
        "name": "Cyl Hala Śmietanowa",
        "longitude": 50.661537,
        "latitude": 20.098516
    },
    {
        "id": 185,
        "name": "Polica",
        "longitude": 50.491184,
        "latitude": 19.464166
    },
    {
        "id": 186,
        "name": "Schronisko PTTK Hala Krupowa",
        "longitude": 50.677267,
        "latitude": 18.434173
    },
    {
        "id": 187,
        "name": "Kiełek",
        "longitude": 50.377786,
        "latitude": 20.571846
    },
    {
        "id": 188,
        "name": "Cupel",
        "longitude": 50.126916,
        "latitude": 21.468947
    },
    {
        "id": 189,
        "name": "Bujakowski Groń",
        "longitude": 50.191313,
        "latitude": 20.19671
    },
    {
        "id": 190,
        "name": "Hrobacza Łąka",
        "longitude": 49.638706,
        "latitude": 18.423161
    },
    {
        "id": 191,
        "name": "Przełęcz między Gaikami",
        "longitude": 50.720367,
        "latitude": 17.237326
    },
    {
        "id": 192,
        "name": "Przełęcz Przegibek",
        "longitude": 50.267601,
        "latitude": 21.327792
    },
    {
        "id": 193,
        "name": "Magurka Wilkowicka",
        "longitude": 49.802675,
        "latitude": 20.513169
    },
    {
        "id": 194,
        "name": "Czupel",
        "longitude": 50.696635,
        "latitude": 20.239304
    },
    {
        "id": 195,
        "name": "Przyszop",
        "longitude": 50.338072,
        "latitude": 20.804245
    },
    {
        "id": 196,
        "name": "Przełęcz Przysłop Cisowy",
        "longitude": 50.238745,
        "latitude": 18.566624
    },
    {
        "id": 197,
        "name": "Przełęcz Kocierska",
        "longitude": 50.061627,
        "latitude": 18.109101
    },
    {
        "id": 198,
        "name": "Złota Góra",
        "longitude": 49.795155,
        "latitude": 17.748666
    },
    {
        "id": 199,
        "name": "Bukowski Groń",
        "longitude": 50.69407,
        "latitude": 20.711288
    },
    {
        "id": 200,
        "name": "Wielka Puszcza - leśniczówka",
        "longitude": 50.282613,
        "latitude": 20.642391
    },
    {
        "id": 201,
        "name": "Potrójna",
        "longitude": 50.244313,
        "latitude": 19.794267
    },
    {
        "id": 202,
        "name": "Na Płonnem",
        "longitude": 50.182488,
        "latitude": 20.087545
    },
    {
        "id": 203,
        "name": "Łamana Skała",
        "longitude": 50.285552,
        "latitude": 21.823498
    },
    {
        "id": 204,
        "name": "Groń Jana Pawła II",
        "longitude": 50.703009,
        "latitude": 16.877271
    },
    {
        "id": 205,
        "name": "Skrzyżowanie Panienka",
        "longitude": 50.768486,
        "latitude": 17.281791
    },
    {
        "id": 206,
        "name": "Przełęcz Biadoszowska",
        "longitude": 50.702283,
        "latitude": 20.598086
    },
    {
        "id": 207,
        "name": "Łysa Góra",
        "longitude": 50.526538,
        "latitude": 18.252113
    },
    {
        "id": 208,
        "name": "Iłowiec",
        "longitude": 50.596831,
        "latitude": 22.052126
    },
    {
        "id": 209,
        "name": "Łyska",
        "longitude": 49.607467,
        "latitude": 18.328806
    },
    {
        "id": 210,
        "name": "Barutka",
        "longitude": 49.801748,
        "latitude": 16.951205
    },
    {
        "id": 211,
        "name": "Bąków",
        "longitude": 50.195626,
        "latitude": 17.973097
    },
    {
        "id": 212,
        "name": "Gachowizna",
        "longitude": 50.552923,
        "latitude": 18.325634
    },
    {
        "id": 213,
        "name": "Ślemień",
        "longitude": 49.757416,
        "latitude": 20.146242
    },
    {
        "id": 214,
        "name": "Wajdów Groń",
        "longitude": 50.639466,
        "latitude": 19.720201
    },
    {
        "id": 215,
        "name": "Zagrodzki Groń",
        "longitude": 49.923255,
        "latitude": 20.870464
    },
    {
        "id": 216,
        "name": "Schronisko \"Lasek\"",
        "longitude": 49.581928,
        "latitude": 19.133954
    },
    {
        "id": 217,
        "name": "Hucisko",
        "longitude": 50.68569,
        "latitude": 21.894992
    },
    {
        "id": 218,
        "name": "Solniska",
        "longitude": 50.410975,
        "latitude": 18.71441
    },
    {
        "id": 219,
        "name": "Żurawnica",
        "longitude": 50.418645,
        "latitude": 19.368715
    },
    {
        "id": 220,
        "name": "Lipska Góra",
        "longitude": 49.656346,
        "latitude": 16.297756
    },
    {
        "id": 221,
        "name": "Mioduszyna",
        "longitude": 50.400851,
        "latitude": 17.377256
    },
    {
        "id": 222,
        "name": "Osiedle Piątkowa - Maków Podhalański",
        "longitude": 50.372064,
        "latitude": 21.396555
    },
    {
        "id": 223,
        "name": "Ostrysz",
        "longitude": 50.73729,
        "latitude": 18.01033
    },
    {
        "id": 224,
        "name": "Jaroszowicka Góra",
        "longitude": 50.353883,
        "latitude": 20.481767
    },
    {
        "id": 225,
        "name": "Żar",
        "longitude": 49.983497,
        "latitude": 20.754066
    },
    {
        "id": 226,
        "name": "Lanckorońska Góra",
        "longitude": 49.573773,
        "latitude": 20.951201
    },
    {
        "id": 227,
        "name": "Chełm 603 m)",
        "longitude": 49.602179,
        "latitude": 21.113899
    },
    {
        "id": 228,
        "name": "Chełm Wschodni",
        "longitude": 50.340826,
        "latitude": 21.428947
    },
    {
        "id": 229,
        "name": "Babica Zachodnia",
        "longitude": 50.187939,
        "latitude": 21.998125
    },
    {
        "id": 230,
        "name": "Cisy",
        "longitude": 50.735299,
        "latitude": 18.976298
    },
    {
        "id": 231,
        "name": "Harbutowice",
        "longitude": 49.945528,
        "latitude": 21.309225
    },
    {
        "id": 232,
        "name": "Babica",
        "longitude": 49.546606,
        "latitude": 19.189255
    },
    {
        "id": 233,
        "name": "Sularzowa",
        "longitude": 49.850664,
        "latitude": 18.039864
    },
    {
        "id": 234,
        "name": "Barnasiówka",
        "longitude": 50.552214,
        "latitude": 17.008059
    },
    {
        "id": 235,
        "name": "Koskowa Góra",
        "longitude": 50.074896,
        "latitude": 17.820262
    },
    {
        "id": 236,
        "name": "Polana Gronie",
        "longitude": 49.706755,
        "latitude": 18.204736
    },
    {
        "id": 237,
        "name": "Przykrzec",
        "longitude": 49.745815,
        "latitude": 20.760591
    },
    {
        "id": 238,
        "name": "Kotoń Zachodni",
        "longitude": 50.552978,
        "latitude": 20.556207
    },
    {
        "id": 239,
        "name": "Kotoń",
        "longitude": 50.705323,
        "latitude": 20.658501
    },
    {
        "id": 240,
        "name": "Pcim",
        "longitude": 49.728929,
        "latitude": 19.759124
    },
    {
        "id": 241,
        "name": "Chełm",
        "longitude": 50.001108,
        "latitude": 18.467009
    },
    {
        "id": 242,
        "name": "Śliwnik",
        "longitude": 50.368104,
        "latitude": 20.454499
    },
    {
        "id": 243,
        "name": "Myślenice Zarabie",
        "longitude": 50.747493,
        "latitude": 19.040504
    },
    {
        "id": 244,
        "name": "Działek",
        "longitude": 50.52434,
        "latitude": 17.58264
    },
    {
        "id": 245,
        "name": "Schronisko PTTK na Kudłaczach",
        "longitude": 50.586622,
        "latitude": 20.404944
    },
    {
        "id": 246,
        "name": "Łysina",
        "longitude": 50.466236,
        "latitude": 19.496547
    },
    {
        "id": 247,
        "name": "Lubomir",
        "longitude": 50.418426,
        "latitude": 17.15262
    },
    {
        "id": 248,
        "name": "Przełęcz Wierzbanowska",
        "longitude": 49.968157,
        "latitude": 21.823794
    },
    {
        "id": 249,
        "name": "Przełęcz Sucha",
        "longitude": 50.644583,
        "latitude": 21.323027
    },
    {
        "id": 250,
        "name": "Kamiennik",
        "longitude": 50.210632,
        "latitude": 21.910175
    },
    {
        "id": 251,
        "name": "Ostrysz",
        "longitude": 50.043028,
        "latitude": 16.893399
    },
    {
        "id": 252,
        "name": "Trupielec",
        "longitude": 49.789253,
        "latitude": 16.55876
    },
    {
        "id": 253,
        "name": "Krowia Góra",
        "longitude": 49.570919,
        "latitude": 17.411829
    },
    {
        "id": 254,
        "name": "Piątkowa",
        "longitude": 50.702486,
        "latitude": 19.179827
    },
    {
        "id": 255,
        "name": "Rabska Góra",
        "longitude": 49.810087,
        "latitude": 19.371207
    },
    {
        "id": 256,
        "name": "Obidowa - PKS Rdzawka II",
        "longitude": 49.549894,
        "latitude": 19.380543
    },
    {
        "id": 257,
        "name": "Ponice",
        "longitude": 50.392953,
        "latitude": 19.556
    },
    {
        "id": 258,
        "name": "Bacówka PTTK Maciejowa",
        "longitude": 50.128225,
        "latitude": 21.213983
    },
    {
        "id": 259,
        "name": "Schronisko PTTK Stare Wierchy",
        "longitude": 50.739227,
        "latitude": 20.674562
    },
    {
        "id": 260,
        "name": "Bukowina Obidowska",
        "longitude": 50.748565,
        "latitude": 19.419866
    },
    {
        "id": 261,
        "name": "Obidowiec",
        "longitude": 50.193697,
        "latitude": 19.583531
    },
    {
        "id": 262,
        "name": "Turbacz",
        "longitude": 49.802827,
        "latitude": 18.301819
    },
    {
        "id": 263,
        "name": "Schronisko PTTK na Turbaczu",
        "longitude": 50.535242,
        "latitude": 17.966811
    },
    {
        "id": 264,
        "name": "Przełęcz Borek",
        "longitude": 50.204864,
        "latitude": 18.370484
    },
    {
        "id": 265,
        "name": "Kudłoń",
        "longitude": 49.877603,
        "latitude": 19.717247
    },
    {
        "id": 266,
        "name": "Kiczora",
        "longitude": 50.727743,
        "latitude": 16.27938
    },
    {
        "id": 267,
        "name": "Przełęcz Knurowska",
        "longitude": 49.973788,
        "latitude": 17.967053
    },
    {
        "id": 268,
        "name": "Przełęcz pod Przysłopem",
        "longitude": 49.634277,
        "latitude": 17.72033
    },
    {
        "id": 269,
        "name": "Runek",
        "longitude": 50.610085,
        "latitude": 16.243035
    },
    {
        "id": 270,
        "name": "Lubań",
        "longitude": 50.546813,
        "latitude": 20.066906
    },
    {
        "id": 271,
        "name": "Gorc",
        "longitude": 50.119112,
        "latitude": 21.972209
    },
    {
        "id": 272,
        "name": "Przełęcz Wierch Młynne",
        "longitude": 50.381741,
        "latitude": 20.378975
    },
    {
        "id": 273,
        "name": "Tworogi",
        "longitude": 50.731574,
        "latitude": 19.291772
    },
    {
        "id": 274,
        "name": "Wielki Wierch",
        "longitude": 50.002525,
        "latitude": 21.921626
    },
    {
        "id": 275,
        "name": "Nowa Polana",
        "longitude": 49.778987,
        "latitude": 20.798972
    },
    {
        "id": 276,
        "name": "Potaczkowa",
        "longitude": 49.716683,
        "latitude": 19.179614
    },
    {
        "id": 277,
        "name": "Poręba Wielka",
        "longitude": 49.63846,
        "latitude": 19.528526
    },
    {
        "id": 278,
        "name": "Olszówka",
        "longitude": 50.185006,
        "latitude": 16.570811
    },
    {
        "id": 279,
        "name": "Przełęcz pod Grzebieniem",
        "longitude": 49.66429,
        "latitude": 19.009378
    },
    {
        "id": 280,
        "name": "Zębalowa",
        "longitude": 50.68184,
        "latitude": 19.639185
    },
    {
        "id": 281,
        "name": "Schronisko PTTK Luboń Wielki",
        "longitude": 49.764055,
        "latitude": 17.856658
    },
    {
        "id": 282,
        "name": "Luboń Mały przystanek PKS",
        "longitude": 49.545477,
        "latitude": 18.042771
    },
    {
        "id": 283,
        "name": "Przełęcz Glisne",
        "longitude": 49.608457,
        "latitude": 16.936432
    },
    {
        "id": 284,
        "name": "Szczebel",
        "longitude": 50.134972,
        "latitude": 20.31943
    },
    {
        "id": 285,
        "name": "Zapadliska",
        "longitude": 50.212805,
        "latitude": 21.879246
    },
    {
        "id": 286,
        "name": "Lubogoszcz",
        "longitude": 49.908889,
        "latitude": 18.115759
    },
    {
        "id": 287,
        "name": "Przełęcz Jaworzyce",
        "longitude": 50.36716,
        "latitude": 22.354092
    },
    {
        "id": 288,
        "name": "Kasina Wielka",
        "longitude": 50.58537,
        "latitude": 20.410964
    },
    {
        "id": 289,
        "name": "Ciecień",
        "longitude": 50.776072,
        "latitude": 16.383743
    },
    {
        "id": 290,
        "name": "Grodzisko",
        "longitude": 50.456063,
        "latitude": 18.831869
    },
    {
        "id": 291,
        "name": "Szczyrzyc",
        "longitude": 50.073982,
        "latitude": 19.24186
    },
    {
        "id": 292,
        "name": "Kostrza",
        "longitude": 50.649908,
        "latitude": 16.458677
    },
    {
        "id": 293,
        "name": "Śnieżnica",
        "longitude": 49.993709,
        "latitude": 21.967833
    },
    {
        "id": 294,
        "name": "Ćwilin",
        "longitude": 50.671706,
        "latitude": 19.773804
    },
    {
        "id": 295,
        "name": "Ostra",
        "longitude": 50.579687,
        "latitude": 16.428696
    },
    {
        "id": 296,
        "name": "Jasień",
        "longitude": 49.998877,
        "latitude": 16.613636
    },
    {
        "id": 297,
        "name": "Polana Wały",
        "longitude": 49.765468,
        "latitude": 18.73617
    },
    {
        "id": 298,
        "name": "Mogielnica",
        "longitude": 50.324086,
        "latitude": 19.828432
    },
    {
        "id": 299,
        "name": "Łopień",
        "longitude": 49.76802,
        "latitude": 18.836366
    },
    {
        "id": 300,
        "name": "Przełęcz między Cichoniem a Ostrą",
        "longitude": 50.059847,
        "latitude": 17.784509
    },
    {
        "id": 301,
        "name": "Przełęcz Słopnicka",
        "longitude": 49.907011,
        "latitude": 19.771583
    },
    {
        "id": 302,
        "name": "Modyń",
        "longitude": 49.966457,
        "latitude": 16.327805
    },
    {
        "id": 303,
        "name": "Wyżka",
        "longitude": 49.644901,
        "latitude": 20.646183
    },
    {
        "id": 304,
        "name": "Litacz",
        "longitude": 50.461403,
        "latitude": 17.277848
    },
    {
        "id": 305,
        "name": "Białowodzka Góra",
        "longitude": 50.526211,
        "latitude": 22.078847
    },
    {
        "id": 306,
        "name": "Przełęcz św. Justa",
        "longitude": 50.115663,
        "latitude": 21.512631
    },
    {
        "id": 307,
        "name": "Ostra Góra Płn.",
        "longitude": 49.955875,
        "latitude": 20.237677
    },
    {
        "id": 308,
        "name": "Paproć",
        "longitude": 49.734363,
        "latitude": 18.796432
    },
    {
        "id": 309,
        "name": "Kamionna",
        "longitude": 50.723305,
        "latitude": 21.905725
    },
    {
        "id": 310,
        "name": "Łopusze",
        "longitude": 50.07733,
        "latitude": 16.343824
    },
    {
        "id": 311,
        "name": "Kobyła",
        "longitude": 49.836268,
        "latitude": 21.853077
    },
    {
        "id": 312,
        "name": "Sałasz",
        "longitude": 50.620082,
        "latitude": 16.891393
    },
    {
        "id": 313,
        "name": "Jaworz",
        "longitude": 50.413183,
        "latitude": 20.436848
    },
    {
        "id": 314,
        "name": "Lipnica Wielka - Kaczory",
        "longitude": 49.804339,
        "latitude": 20.663603
    },
    {
        "id": 315,
        "name": "Zubrzyca Górna",
        "longitude": 50.386576,
        "latitude": 20.069302
    },
    {
        "id": 316,
        "name": "Przełęcz między Sidziną a Zubrzycą Górną",
        "longitude": 50.448813,
        "latitude": 18.516895
    },
    {
        "id": 317,
        "name": "Kiełek",
        "longitude": 50.494556,
        "latitude": 22.070922
    },
    {
        "id": 318,
        "name": "Beskidy",
        "longitude": 50.057341,
        "latitude": 17.518852
    },
    {
        "id": 319,
        "name": "Góra Ludwiki",
        "longitude": 49.708936,
        "latitude": 21.711882
    },
    {
        "id": 320,
        "name": "Jordanów",
        "longitude": 49.686401,
        "latitude": 17.028683
    },
    {
        "id": 321,
        "name": "Skawa PKP",
        "longitude": 50.629077,
        "latitude": 16.615656
    },
    {
        "id": 322,
        "name": "Łysa Góra",
        "longitude": 49.798105,
        "latitude": 18.203593
    },
    {
        "id": 323,
        "name": "Żeleźnica",
        "longitude": 50.55326,
        "latitude": 17.734489
    },
    {
        "id": 324,
        "name": "Janiłówka",
        "longitude": 50.188978,
        "latitude": 19.137425
    },
    {
        "id": 325,
        "name": "Wielki Dział",
        "longitude": 50.047052,
        "latitude": 16.866336
    },
    {
        "id": 326,
        "name": "Pająków Wierch",
        "longitude": 50.007629,
        "latitude": 17.472391
    },
    {
        "id": 327,
        "name": "Groń",
        "longitude": 49.91602,
        "latitude": 19.158295
    },
    {
        "id": 328,
        "name": "Cisowa Skała",
        "longitude": 50.103948,
        "latitude": 20.72652
    },
    {
        "id": 329,
        "name": "Nowa Biała",
        "longitude": 50.376594,
        "latitude": 22.247279
    },
    {
        "id": 330,
        "name": "Białka",
        "longitude": 50.178964,
        "latitude": 17.328491
    },
    {
        "id": 331,
        "name": "Jurgów",
        "longitude": 50.045241,
        "latitude": 17.285576
    },
    {
        "id": 332,
        "name": "Krempachy",
        "longitude": 50.141094,
        "latitude": 22.282718
    },
    {
        "id": 333,
        "name": "Frydman",
        "longitude": 50.448825,
        "latitude": 16.892959
    },
    {
        "id": 334,
        "name": "Dursztyn",
        "longitude": 49.860861,
        "latitude": 21.225183
    },
    {
        "id": 335,
        "name": "Łapsze Wyżne",
        "longitude": 50.005945,
        "latitude": 17.665875
    },
    {
        "id": 336,
        "name": "Rzepiska",
        "longitude": 50.194484,
        "latitude": 22.258121
    },
    {
        "id": 337,
        "name": "Kopylec",
        "longitude": 50.17191,
        "latitude": 20.2563
    },
    {
        "id": 338,
        "name": "Pieskowy Wierch",
        "longitude": 50.508991,
        "latitude": 21.321748
    },
    {
        "id": 339,
        "name": "Żar",
        "longitude": 49.983618,
        "latitude": 16.561522
    },
    {
        "id": 340,
        "name": "Cisówka",
        "longitude": 50.177479,
        "latitude": 22.180286
    },
    {
        "id": 341,
        "name": "Nidzica Zamek",
        "longitude": 50.19305,
        "latitude": 19.526745
    },
    {
        "id": 342,
        "name": "Frankowa Góra",
        "longitude": 50.586375,
        "latitude": 21.357283
    },
    {
        "id": 343,
        "name": "Kacwin",
        "longitude": 50.446357,
        "latitude": 18.288397
    },
    {
        "id": 344,
        "name": "Czorsztyn",
        "longitude": 50.039893,
        "latitude": 16.705253
    },
    {
        "id": 345,
        "name": "Macelak",
        "longitude": 50.647033,
        "latitude": 21.96174
    },
    {
        "id": 346,
        "name": "Przełęcz Szopka",
        "longitude": 49.659665,
        "latitude": 18.012148
    },
    {
        "id": 347,
        "name": "Sromowce Niżne",
        "longitude": 50.201163,
        "latitude": 16.403563
    },
    {
        "id": 348,
        "name": "Trzy Korony",
        "longitude": 50.009871,
        "latitude": 19.087481
    },
    {
        "id": 349,
        "name": "Czertezik",
        "longitude": 50.1946,
        "latitude": 21.909433
    },
    {
        "id": 350,
        "name": "Sokolica",
        "longitude": 49.738719,
        "latitude": 21.379958
    },
    {
        "id": 351,
        "name": "Schronisko PTTK Orlica",
        "longitude": 50.409048,
        "latitude": 22.314915
    },
    {
        "id": 352,
        "name": "Szafranówka",
        "longitude": 50.33501,
        "latitude": 16.869018
    },
    {
        "id": 353,
        "name": "Jarmuta",
        "longitude": 50.188119,
        "latitude": 18.861931
    },
    {
        "id": 354,
        "name": "Wysoki Wierch",
        "longitude": 50.479964,
        "latitude": 18.27271
    },
    {
        "id": 355,
        "name": "Durbaszka",
        "longitude": 49.732603,
        "latitude": 21.494096
    },
    {
        "id": 356,
        "name": "Wysoka",
        "longitude": 50.121538,
        "latitude": 21.037237
    },
    {
        "id": 357,
        "name": "Jaworki",
        "longitude": 49.904446,
        "latitude": 18.906223
    },
    {
        "id": 358,
        "name": "Wąwóz Homole",
        "longitude": 50.195304,
        "latitude": 22.120867
    },
    {
        "id": 359,
        "name": "Szczawnica PKS",
        "longitude": 50.535552,
        "latitude": 19.423911
    },
    {
        "id": 360,
        "name": "Jaworzynka",
        "longitude": 49.733426,
        "latitude": 19.93918
    },
    {
        "id": 361,
        "name": "Dzwonkówka",
        "longitude": 49.768555,
        "latitude": 17.020184
    },
    {
        "id": 362,
        "name": "Schronisko na Bereśniku",
        "longitude": 50.352358,
        "latitude": 21.19216
    },
    {
        "id": 363,
        "name": "Bryjarka",
        "longitude": 50.58004,
        "latitude": 19.670979
    },
    {
        "id": 364,
        "name": "Schronisko PTTK Prehyba",
        "longitude": 49.548638,
        "latitude": 22.253702
    },
    {
        "id": 365,
        "name": "Szlachtowa",
        "longitude": 50.670127,
        "latitude": 19.549639
    },
    {
        "id": 366,
        "name": "Radziejowa",
        "longitude": 49.953651,
        "latitude": 19.145156
    },
    {
        "id": 367,
        "name": "Wielki Rogacz",
        "longitude": 49.744329,
        "latitude": 19.891202
    },
    {
        "id": 368,
        "name": "Przełęcz Obidza",
        "longitude": 49.735466,
        "latitude": 17.759312
    },
    {
        "id": 369,
        "name": "Eliaszówka",
        "longitude": 50.248045,
        "latitude": 20.175078
    },
    {
        "id": 370,
        "name": "Kosarzyska",
        "longitude": 49.843453,
        "latitude": 21.390575
    },
    {
        "id": 371,
        "name": "Niemcowa",
        "longitude": 49.571843,
        "latitude": 17.866463
    },
    {
        "id": 372,
        "name": "Ostra",
        "longitude": 50.081245,
        "latitude": 17.921939
    },
    {
        "id": 373,
        "name": "Makowica",
        "longitude": 50.767514,
        "latitude": 17.442141
    },
    {
        "id": 374,
        "name": "Pisana Hala",
        "longitude": 50.616742,
        "latitude": 17.278635
    },
    {
        "id": 375,
        "name": "Łomnica Zdrój",
        "longitude": 49.97423,
        "latitude": 18.819068
    },
    {
        "id": 376,
        "name": "Schronisko PTTK na Hali Łabowskiej",
        "longitude": 50.170258,
        "latitude": 17.458245
    },
    {
        "id": 377,
        "name": "Runek",
        "longitude": 49.691574,
        "latitude": 17.82495
    },
    {
        "id": 378,
        "name": "Pusta Wielka",
        "longitude": 49.805273,
        "latitude": 20.476057
    },
    {
        "id": 379,
        "name": "Żegiestów",
        "longitude": 49.707288,
        "latitude": 21.896205
    },
    {
        "id": 380,
        "name": "Wierchomla Wielka-wodospad",
        "longitude": 50.237558,
        "latitude": 16.300906
    },
    {
        "id": 381,
        "name": "Bacówka PTTK nad Wierchomlą",
        "longitude": 49.792837,
        "latitude": 16.657893
    },
    {
        "id": 382,
        "name": "Schronisko PTTK Jaworzyna Krynicka",
        "longitude": 50.303093,
        "latitude": 21.155163
    },
    {
        "id": 383,
        "name": "Muszyna-Złockie",
        "longitude": 50.585696,
        "latitude": 20.507727
    },
    {
        "id": 384,
        "name": "Wielka Polana",
        "longitude": 49.883609,
        "latitude": 17.934387
    },
    {
        "id": 385,
        "name": "Dubne",
        "longitude": 49.908711,
        "latitude": 16.311506
    },
    {
        "id": 386,
        "name": "Kidałki",
        "longitude": 50.2062,
        "latitude": 20.837273
    },
    {
        "id": 387,
        "name": "Wysokie Bereście",
        "longitude": 49.54875,
        "latitude": 16.462102
    },
    {
        "id": 388,
        "name": "Przełęcz Tylicka",
        "longitude": 50.41379,
        "latitude": 20.005237
    },
    {
        "id": 389,
        "name": "Tylicz",
        "longitude": 49.870752,
        "latitude": 17.549122
    },
    {
        "id": 390,
        "name": "Przysłop",
        "longitude": 50.619578,
        "latitude": 21.905571
    },
    {
        "id": 391,
        "name": "Bukowinka",
        "longitude": 50.008122,
        "latitude": 17.95017
    },
    {
        "id": 392,
        "name": "Kopciowa",
        "longitude": 50.646086,
        "latitude": 17.398622
    },
    {
        "id": 393,
        "name": "Przełęcz Krzyżowa",
        "longitude": 49.600548,
        "latitude": 20.462905
    },
    {
        "id": 394,
        "name": "Huzary",
        "longitude": 50.241525,
        "latitude": 20.625583
    },
    {
        "id": 395,
        "name": "Góra Parkowa",
        "longitude": 49.715461,
        "latitude": 18.88966
    },
    {
        "id": 396,
        "name": "Szalone",
        "longitude": 50.045128,
        "latitude": 18.802786
    },
    {
        "id": 397,
        "name": "Trawna Góra",
        "longitude": 49.907072,
        "latitude": 18.477588
    },
    {
        "id": 398,
        "name": "Draboż",
        "longitude": 49.833224,
        "latitude": 17.955443
    },
    {
        "id": 399,
        "name": "Kalwaria Lanckorona",
        "longitude": 50.005917,
        "latitude": 16.563521
    },
    {
        "id": 400,
        "name": "Bukowiec",
        "longitude": 49.972448,
        "latitude": 20.473796
    },
    {
        "id": 401,
        "name": "Wiśnicz Nowy",
        "longitude": 50.318063,
        "latitude": 22.110403
    },
    {
        "id": 402,
        "name": "Dominiczna Góra",
        "longitude": 49.891881,
        "latitude": 17.53461
    },
    {
        "id": 403,
        "name": "Rogozowa",
        "longitude": 50.421928,
        "latitude": 18.102613
    },
    {
        "id": 404,
        "name": "Szpilówka",
        "longitude": 50.338441,
        "latitude": 18.367611
    },
    {
        "id": 405,
        "name": "Łysa Góra",
        "longitude": 50.336701,
        "latitude": 19.610677
    },
    {
        "id": 406,
        "name": "Panieńska Góra",
        "longitude": 49.961645,
        "latitude": 18.190224
    },
    {
        "id": 407,
        "name": "Przełęcz Pod Kobylnicą",
        "longitude": 50.289128,
        "latitude": 21.100284
    },
    {
        "id": 408,
        "name": "Dział",
        "longitude": 50.744031,
        "latitude": 21.713612
    },
    {
        "id": 409,
        "name": "Majdan",
        "longitude": 50.048536,
        "latitude": 17.111446
    },
    {
        "id": 410,
        "name": "Jodłowa",
        "longitude": 50.608803,
        "latitude": 19.816431
    },
    {
        "id": 411,
        "name": "Rosochatka",
        "longitude": 50.751046,
        "latitude": 19.311484
    },
    {
        "id": 412,
        "name": "Bukowiec",
        "longitude": 50.688676,
        "latitude": 19.292184
    },
    {
        "id": 413,
        "name": "Bruśnik",
        "longitude": 50.190191,
        "latitude": 19.325275
    },
    {
        "id": 414,
        "name": "Bacówka na Jamnej",
        "longitude": 50.38802,
        "latitude": 20.708278
    },
    {
        "id": 415,
        "name": "Styr",
        "longitude": 49.911347,
        "latitude": 18.990904
    },
    {
        "id": 416,
        "name": "Mogiła",
        "longitude": 50.264127,
        "latitude": 17.626525
    },
    {
        "id": 417,
        "name": "Sucha Góra",
        "longitude": 50.623007,
        "latitude": 18.653342
    },
    {
        "id": 418,
        "name": "Sucha Góra",
        "longitude": 50.599409,
        "latitude": 22.226781
    },
    {
        "id": 419,
        "name": "Wał",
        "longitude": 50.699574,
        "latitude": 20.349923
    },
    {
        "id": 420,
        "name": "Góra św. Marcina",
        "longitude": 49.74146,
        "latitude": 17.575593
    },
    {
        "id": 421,
        "name": "Słona Góra",
        "longitude": 49.564407,
        "latitude": 21.73154
    },
    {
        "id": 422,
        "name": "Trzemeska Góra",
        "longitude": 49.912501,
        "latitude": 19.737642
    },
    {
        "id": 423,
        "name": "Kokocz",
        "longitude": 49.698376,
        "latitude": 19.858485
    },
    {
        "id": 424,
        "name": "Gilowa Góra",
        "longitude": 50.004112,
        "latitude": 17.636554
    },
    {
        "id": 425,
        "name": "Liwocz",
        "longitude": 49.641897,
        "latitude": 20.159469
    },
    {
        "id": 426,
        "name": "Ostry Kamień",
        "longitude": 49.854211,
        "latitude": 16.688591
    },
    {
        "id": 427,
        "name": "Bacówka Brzanka",
        "longitude": 50.489867,
        "latitude": 22.356902
    },
    {
        "id": 428,
        "name": "Polana Morgi",
        "longitude": 49.575436,
        "latitude": 19.115107
    },
    {
        "id": 429,
        "name": "Nosalowa",
        "longitude": 49.959804,
        "latitude": 16.921251
    },
    {
        "id": 430,
        "name": "Rzepiennik Biskupi",
        "longitude": 49.791226,
        "latitude": 16.627121
    },
    {
        "id": 431,
        "name": "Skamieniałe Miasto",
        "longitude": 49.564155,
        "latitude": 18.245784
    },
    {
        "id": 432,
        "name": "Staszkówka",
        "longitude": 49.780388,
        "latitude": 22.108414
    },
    {
        "id": 433,
        "name": "Pustki",
        "longitude": 49.820355,
        "latitude": 21.241945
    },
    {
        "id": 434,
        "name": "Łysa Góra",
        "longitude": 50.150913,
        "latitude": 21.95221
    },
    {
        "id": 435,
        "name": "Bucze",
        "longitude": 50.418145,
        "latitude": 19.370817
    },
    {
        "id": 436,
        "name": "Maślana Góra",
        "longitude": 50.133088,
        "latitude": 20.199262
    },
    {
        "id": 437,
        "name": "Margoń Wyżna",
        "longitude": 49.676576,
        "latitude": 21.080674
    },
    {
        "id": 438,
        "name": "Tokarnia",
        "longitude": 49.67657,
        "latitude": 16.879749
    },
    {
        "id": 439,
        "name": "Czerszla",
        "longitude": 50.184065,
        "latitude": 21.611247
    },
    {
        "id": 440,
        "name": "Jaworze",
        "longitude": 49.927871,
        "latitude": 21.141967
    },
    {
        "id": 441,
        "name": "Przełęcz pod Uboczem",
        "longitude": 50.345296,
        "latitude": 16.99724
    },
    {
        "id": 442,
        "name": "Jaworynki",
        "longitude": 50.253595,
        "latitude": 19.515237
    },
    {
        "id": 443,
        "name": "Hłocza",
        "longitude": 50.538812,
        "latitude": 21.00604
    },
    {
        "id": 444,
        "name": "Kiczera Wielka",
        "longitude": 50.149898,
        "latitude": 22.18372
    },
    {
        "id": 445,
        "name": "Chłopski Wierch",
        "longitude": 49.686018,
        "latitude": 18.370172
    },
    {
        "id": 446,
        "name": "Harniaków Wierch",
        "longitude": 49.735279,
        "latitude": 17.211364
    },
    {
        "id": 447,
        "name": "Banica",
        "longitude": 50.634703,
        "latitude": 20.707512
    },
    {
        "id": 448,
        "name": "Izby",
        "longitude": 50.237035,
        "latitude": 17.442657
    },
    {
        "id": 449,
        "name": "Dzielec",
        "longitude": 50.053784,
        "latitude": 16.491327
    },
    {
        "id": 450,
        "name": "Muszynka",
        "longitude": 50.217126,
        "latitude": 22.26064
    },
    {
        "id": 451,
        "name": "Lackowa",
        "longitude": 50.392299,
        "latitude": 19.051207
    },
    {
        "id": 452,
        "name": "Ostry Wierch",
        "longitude": 50.704623,
        "latitude": 16.53636
    },
    {
        "id": 453,
        "name": "Ropki",
        "longitude": 50.528519,
        "latitude": 16.75082
    },
    {
        "id": 454,
        "name": "Bordiów Wierch",
        "longitude": 50.2352,
        "latitude": 19.945628
    },
    {
        "id": 455,
        "name": "Sucha Homola",
        "longitude": 50.107914,
        "latitude": 18.286883
    },
    {
        "id": 456,
        "name": "Flasza",
        "longitude": 50.67301,
        "latitude": 21.095351
    },
    {
        "id": 457,
        "name": "Chełm nad Grybowem",
        "longitude": 49.642597,
        "latitude": 20.613336
    },
    {
        "id": 458,
        "name": "Wawrzka",
        "longitude": 50.578408,
        "latitude": 16.502171
    },
    {
        "id": 459,
        "name": "TPG Cigelka",
        "longitude": 50.145481,
        "latitude": 17.550754
    },
    {
        "id": 460,
        "name": "Wysota",
        "longitude": 50.218575,
        "latitude": 16.915799
    },
    {
        "id": 461,
        "name": "Obycz",
        "longitude": 50.025191,
        "latitude": 17.345545
    },
    {
        "id": 462,
        "name": "Jaworzynka",
        "longitude": 49.548758,
        "latitude": 18.77805
    },
    {
        "id": 463,
        "name": "Kozie Żebro",
        "longitude": 49.572886,
        "latitude": 22.212847
    },
    {
        "id": 464,
        "name": "Regetów Niżny",
        "longitude": 49.765529,
        "latitude": 18.420292
    },
    {
        "id": 465,
        "name": "Regetów Wyżny",
        "longitude": 50.119049,
        "latitude": 19.800864
    },
    {
        "id": 466,
        "name": "Rotunda",
        "longitude": 49.928303,
        "latitude": 17.261764
    },
    {
        "id": 467,
        "name": "Jaworzyna Konieczniańska",
        "longitude": 49.899266,
        "latitude": 16.392931
    },
    {
        "id": 468,
        "name": "Przełęcz Dujawa",
        "longitude": 50.375053,
        "latitude": 18.157009
    },
    {
        "id": 469,
        "name": "Miejska Góra",
        "longitude": 50.218863,
        "latitude": 20.856948
    },
    {
        "id": 470,
        "name": "Przełęcz Zdżar",
        "longitude": 50.467039,
        "latitude": 16.832747
    },
    {
        "id": 471,
        "name": "Leszczyny",
        "longitude": 49.943522,
        "latitude": 17.835414
    },
    {
        "id": 472,
        "name": "Magura Małastowska",
        "longitude": 50.55053,
        "latitude": 17.378152
    },
    {
        "id": 473,
        "name": "Dziamera",
        "longitude": 49.840414,
        "latitude": 18.4338
    },
    {
        "id": 474,
        "name": "Łysula",
        "longitude": 50.384666,
        "latitude": 16.590793
    },
    {
        "id": 475,
        "name": "Ferdel",
        "longitude": 50.678385,
        "latitude": 22.228027
    },
    {
        "id": 476,
        "name": "Męcińska Góra",
        "longitude": 50.344652,
        "latitude": 19.845193
    },
    {
        "id": 477,
        "name": "Kornuty",
        "longitude": 50.378023,
        "latitude": 21.537621
    },
    {
        "id": 478,
        "name": "Magura Wątkowska",
        "longitude": 50.111193,
        "latitude": 19.118356
    },
    {
        "id": 479,
        "name": "Bartne - Bacówka PTTK",
        "longitude": 49.699026,
        "latitude": 17.890823
    },
    {
        "id": 480,
        "name": "Banica",
        "longitude": 49.922744,
        "latitude": 21.972247
    },
    {
        "id": 481,
        "name": "Popowe Wierchy",
        "longitude": 49.6511,
        "latitude": 17.919749
    },
    {
        "id": 482,
        "name": "Dębi Wierch",
        "longitude": 50.147426,
        "latitude": 21.353047
    },
    {
        "id": 483,
        "name": "Radocyna",
        "longitude": 50.024277,
        "latitude": 22.305565
    },
    {
        "id": 484,
        "name": "Grab",
        "longitude": 50.679301,
        "latitude": 18.399581
    },
    {
        "id": 485,
        "name": "Wołowiec",
        "longitude": 50.779137,
        "latitude": 19.251333
    },
    {
        "id": 486,
        "name": "Mareszka",
        "longitude": 50.281581,
        "latitude": 16.32822
    },
    {
        "id": 487,
        "name": "Nieznajowa",
        "longitude": 50.770316,
        "latitude": 16.82377
    },
    {
        "id": 488,
        "name": "Uherec",
        "longitude": 49.868249,
        "latitude": 20.46845
    },
    {
        "id": 489,
        "name": "Rozstajne - Osada",
        "longitude": 49.718243,
        "latitude": 16.554914
    },
    {
        "id": 490,
        "name": "Ożenna",
        "longitude": 50.463092,
        "latitude": 18.340234
    },
    {
        "id": 491,
        "name": "Nad Tysowym",
        "longitude": 50.300248,
        "latitude": 22.278597
    },
    {
        "id": 492,
        "name": "Filipowski Wierch",
        "longitude": 49.613017,
        "latitude": 22.286574
    },
    {
        "id": 493,
        "name": "Ciechania",
        "longitude": 49.5858,
        "latitude": 21.563895
    },
    {
        "id": 494,
        "name": "Krempna",
        "longitude": 50.113406,
        "latitude": 17.307493
    },
    {
        "id": 495,
        "name": "Kamień",
        "longitude": 50.094379,
        "latitude": 17.615216
    },
    {
        "id": 496,
        "name": "Ostrysz",
        "longitude": 50.53913,
        "latitude": 18.306909
    },
    {
        "id": 497,
        "name": "Przełęcz Smyczka",
        "longitude": 50.442023,
        "latitude": 17.394224
    },
    {
        "id": 498,
        "name": "Nowy Żmigród",
        "longitude": 49.828179,
        "latitude": 19.360338
    },
    {
        "id": 499,
        "name": "Polana",
        "longitude": 49.545618,
        "latitude": 20.247273
    },
    {
        "id": 500,
        "name": "Myscowa",
        "longitude": 50.11835,
        "latitude": 21.540767
    },
    {
        "id": 501,
        "name": "Olchowiec",
        "longitude": 49.543287,
        "latitude": 17.719605
    },
    {
        "id": 502,
        "name": "Huta Polańska",
        "longitude": 50.698655,
        "latitude": 19.807881
    },
    {
        "id": 503,
        "name": "Baranie",
        "longitude": 49.649183,
        "latitude": 19.691236
    },
    {
        "id": 504,
        "name": "Grzbiet Hyrowej",
        "longitude": 50.211266,
        "latitude": 16.684811
    },
    {
        "id": 505,
        "name": "Mszana",
        "longitude": 49.544729,
        "latitude": 18.635324
    },
    {
        "id": 506,
        "name": "Cergowa",
        "longitude": 49.929739,
        "latitude": 21.022095
    },
    {
        "id": 507,
        "name": "Osiecznik",
        "longitude": 49.568602,
        "latitude": 21.972819
    },
    {
        "id": 508,
        "name": "Przymiarki",
        "longitude": 50.57782,
        "latitude": 20.326031
    },
    {
        "id": 509,
        "name": "Sucha Góra",
        "longitude": 49.952195,
        "latitude": 17.38972
    },
    {
        "id": 510,
        "name": "Piotruś",
        "longitude": 50.369514,
        "latitude": 17.161782
    },
    {
        "id": 511,
        "name": "Tylawa",
        "longitude": 50.119887,
        "latitude": 16.549863
    },
    {
        "id": 512,
        "name": "Tokarnia",
        "longitude": 50.700858,
        "latitude": 16.79235
    },
    {
        "id": 513,
        "name": "Jałowa Kiczera",
        "longitude": 50.290058,
        "latitude": 17.219151
    },
    {
        "id": 514,
        "name": "Lipowiec",
        "longitude": 49.832795,
        "latitude": 18.712116
    },
    {
        "id": 515,
        "name": "Barwinek",
        "longitude": 50.060428,
        "latitude": 18.621439
    },
    {
        "id": 516,
        "name": "Przełęcz Dukielska",
        "longitude": 49.689248,
        "latitude": 17.333422
    },
    {
        "id": 517,
        "name": "Kamień",
        "longitude": 49.77826,
        "latitude": 21.641142
    },
    {
        "id": 518,
        "name": "Jasiel",
        "longitude": 50.301517,
        "latitude": 16.42202
    },
    {
        "id": 519,
        "name": "Kanasiówka",
        "longitude": 50.320418,
        "latitude": 16.235928
    },
    {
        "id": 520,
        "name": "Pasika",
        "longitude": 50.216523,
        "latitude": 20.752485
    },
    {
        "id": 521,
        "name": "Danowa",
        "longitude": 50.774534,
        "latitude": 16.325273
    },
    {
        "id": 522,
        "name": "Garb Średni",
        "longitude": 50.271534,
        "latitude": 22.364176
    },
    {
        "id": 523,
        "name": "Dołżyca",
        "longitude": 50.744704,
        "latitude": 17.749271
    },
    {
        "id": 524,
        "name": "Siwakowska Dolina",
        "longitude": 50.49002,
        "latitude": 20.351172
    },
    {
        "id": 525,
        "name": "Terpiak",
        "longitude": 50.390582,
        "latitude": 19.222922
    },
    {
        "id": 526,
        "name": "Radoszyce",
        "longitude": 50.131104,
        "latitude": 18.007796
    },
    {
        "id": 527,
        "name": "Dział",
        "longitude": 49.761055,
        "latitude": 20.774657
    },
    {
        "id": 528,
        "name": "Sieniawa",
        "longitude": 49.943589,
        "latitude": 21.934085
    },
    {
        "id": 529,
        "name": "Tarnawka",
        "longitude": 49.616037,
        "latitude": 19.288387
    },
    {
        "id": 530,
        "name": "Jawornik",
        "longitude": 49.597435,
        "latitude": 19.544302
    },
    {
        "id": 531,
        "name": "Puławy Górne",
        "longitude": 50.140534,
        "latitude": 20.267424
    },
    {
        "id": 532,
        "name": "Rozdroże pod Zrubaniem",
        "longitude": 50.40882,
        "latitude": 18.918881
    },
    {
        "id": 533,
        "name": "Dział",
        "longitude": 50.141745,
        "latitude": 20.12555
    },
    {
        "id": 534,
        "name": "Wernejówka",
        "longitude": 50.429846,
        "latitude": 16.348447
    },
    {
        "id": 535,
        "name": "Polany Surowiczne",
        "longitude": 50.556365,
        "latitude": 17.756776
    },
    {
        "id": 536,
        "name": "Przełęcz pod Tokarnią",
        "longitude": 49.979678,
        "latitude": 17.530089
    },
    {
        "id": 537,
        "name": "Kamień",
        "longitude": 50.498752,
        "latitude": 17.150098
    },
    {
        "id": 538,
        "name": "Schronisko PTTK Komańcza-Letnisko",
        "longitude": 50.029711,
        "latitude": 20.060785
    },
    {
        "id": 539,
        "name": "Jasienina",
        "longitude": 50.406484,
        "latitude": 18.800687
    },
    {
        "id": 540,
        "name": "Dziady",
        "longitude": 49.795525,
        "latitude": 20.363106
    },
    {
        "id": 541,
        "name": "Wiecha",
        "longitude": 50.387792,
        "latitude": 18.758996
    },
    {
        "id": 542,
        "name": "Dyszowa",
        "longitude": 49.994457,
        "latitude": 18.786381
    },
    {
        "id": 543,
        "name": "Prełuki",
        "longitude": 49.609575,
        "latitude": 19.650086
    },
    {
        "id": 544,
        "name": "Mików",
        "longitude": 50.196903,
        "latitude": 22.050177
    },
    {
        "id": 545,
        "name": "Krasna",
        "longitude": 50.761753,
        "latitude": 17.724023
    },
    {
        "id": 546,
        "name": "Nowy Łupków",
        "longitude": 49.782703,
        "latitude": 17.942981
    },
    {
        "id": 547,
        "name": "Wysoki Groń",
        "longitude": 50.227066,
        "latitude": 16.266312
    },
    {
        "id": 548,
        "name": "Radoszowa",
        "longitude": 49.925744,
        "latitude": 19.369196
    },
    {
        "id": 549,
        "name": "Maguryczne",
        "longitude": 49.669015,
        "latitude": 19.146212
    },
    {
        "id": 550,
        "name": "Przełęcz Żebrak",
        "longitude": 50.373552,
        "latitude": 22.358664
    },
    {
        "id": 551,
        "name": "Dział",
        "longitude": 49.964655,
        "latitude": 16.212439
    },
    {
        "id": 552,
        "name": "Suliła",
        "longitude": 50.107778,
        "latitude": 18.577639
    },
    {
        "id": 553,
        "name": "Dział",
        "longitude": 50.072215,
        "latitude": 16.213968
    },
    {
        "id": 554,
        "name": "Jeziorka Duszatyńskie",
        "longitude": 49.864912,
        "latitude": 20.02745
    },
    {
        "id": 555,
        "name": "Chryszczata",
        "longitude": 50.415785,
        "latitude": 19.809586
    },
    {
        "id": 556,
        "name": "Kalnica",
        "longitude": 49.758244,
        "latitude": 22.001577
    },
    {
        "id": 557,
        "name": "Gabrów Wierch",
        "longitude": 50.120912,
        "latitude": 19.718388
    },
    {
        "id": 558,
        "name": "Gruszka",
        "longitude": 50.337975,
        "latitude": 17.684032
    },
    {
        "id": 559,
        "name": "Hoczew",
        "longitude": 49.572217,
        "latitude": 18.963265
    },
    {
        "id": 560,
        "name": "Biały Wierch",
        "longitude": 49.58291,
        "latitude": 17.465952
    },
    {
        "id": 561,
        "name": "Horbek",
        "longitude": 50.480354,
        "latitude": 18.455273
    },
    {
        "id": 562,
        "name": "Wierchy",
        "longitude": 50.650916,
        "latitude": 16.407287
    },
    {
        "id": 563,
        "name": "Markowska",
        "longitude": 50.326078,
        "latitude": 17.74522
    },
    {
        "id": 564,
        "name": "Berdo",
        "longitude": 50.366433,
        "latitude": 18.368049
    },
    {
        "id": 565,
        "name": "Rabe",
        "longitude": 50.522509,
        "latitude": 18.616274
    },
    {
        "id": 566,
        "name": "Radziejowa",
        "longitude": 49.887213,
        "latitude": 22.265769
    },
    {
        "id": 567,
        "name": "Durna",
        "longitude": 50.000858,
        "latitude": 16.810494
    },
    {
        "id": 568,
        "name": "Korbania",
        "longitude": 50.283822,
        "latitude": 18.817515
    },
    {
        "id": 569,
        "name": "Kamień",
        "longitude": 49.972969,
        "latitude": 17.336267
    },
    {
        "id": 570,
        "name": "Tołsta",
        "longitude": 50.688756,
        "latitude": 20.331474
    },
    {
        "id": 571,
        "name": "Połoma",
        "longitude": 50.697328,
        "latitude": 20.281464
    },
    {
        "id": 572,
        "name": "Polanki",
        "longitude": 50.614977,
        "latitude": 17.529205
    },
    {
        "id": 573,
        "name": "Łopiennik",
        "longitude": 49.859712,
        "latitude": 17.364336
    },
    {
        "id": 574,
        "name": "Jaworne",
        "longitude": 49.602762,
        "latitude": 20.787589
    },
    {
        "id": 575,
        "name": "Krąglica",
        "longitude": 49.813143,
        "latitude": 16.533527
    },
    {
        "id": 576,
        "name": "Wołosań",
        "longitude": 50.397996,
        "latitude": 20.921839
    },
    {
        "id": 577,
        "name": "Przysłup",
        "longitude": 50.197466,
        "latitude": 21.097986
    },
    {
        "id": 578,
        "name": "Matragona",
        "longitude": 50.090035,
        "latitude": 21.502274
    },
    {
        "id": 579,
        "name": "Balnica",
        "longitude": 49.666788,
        "latitude": 17.647051
    },
    {
        "id": 580,
        "name": "Berdo",
        "longitude": 50.727495,
        "latitude": 22.265127
    },
    {
        "id": 581,
        "name": "Hyrlata",
        "longitude": 50.090569,
        "latitude": 16.386387
    },
    {
        "id": 582,
        "name": "Przełęcz pod Kiczerką",
        "longitude": 49.857804,
        "latitude": 17.060876
    },
    {
        "id": 583,
        "name": "Stryb",
        "longitude": 49.933845,
        "latitude": 18.750728
    },
    {
        "id": 584,
        "name": "Roztoki Górne",
        "longitude": 50.713013,
        "latitude": 19.947799
    },
    {
        "id": 585,
        "name": "Okrąglik",
        "longitude": 49.707501,
        "latitude": 19.273268
    },
    {
        "id": 586,
        "name": "Jasło",
        "longitude": 50.526875,
        "latitude": 18.68076
    },
    {
        "id": 587,
        "name": "Bacówka PTTK Hon w Cisnej",
        "longitude": 50.539626,
        "latitude": 21.896232
    },
    {
        "id": 588,
        "name": "Krzemienna",
        "longitude": 49.868494,
        "latitude": 21.616713
    },
    {
        "id": 589,
        "name": "Falowa",
        "longitude": 50.683174,
        "latitude": 17.80856
    },
    {
        "id": 590,
        "name": "Bacówka PTTK Jaworzec",
        "longitude": 50.125697,
        "latitude": 22.160752
    },
    {
        "id": 591,
        "name": "Smerek",
        "longitude": 49.985589,
        "latitude": 20.104636
    },
    {
        "id": 592,
        "name": "Szpickiery",
        "longitude": 50.765201,
        "latitude": 17.163494
    },
    {
        "id": 593,
        "name": "Płasza",
        "longitude": 50.540408,
        "latitude": 22.135551
    },
    {
        "id": 594,
        "name": "Rabia Skala",
        "longitude": 50.017706,
        "latitude": 19.688541
    },
    {
        "id": 595,
        "name": "Krysowa",
        "longitude": 50.106975,
        "latitude": 20.460649
    },
    {
        "id": 596,
        "name": "Żołobina",
        "longitude": 50.704866,
        "latitude": 18.465947
    },
    {
        "id": 597,
        "name": "Przełęcz Orłowicza",
        "longitude": 50.202212,
        "latitude": 21.762537
    },
    {
        "id": 598,
        "name": "Połonina Wetlińska",
        "longitude": 50.614654,
        "latitude": 20.370638
    },
    {
        "id": 599,
        "name": "Schronisko PTTK na Połoninie Wetlińskiej",
        "longitude": 50.345952,
        "latitude": 22.1565
    },
    {
        "id": 600,
        "name": "Dział",
        "longitude": 50.104628,
        "latitude": 20.183667
    },
    {
        "id": 601,
        "name": "Nad Wetliną",
        "longitude": 50.175549,
        "latitude": 19.952607
    },
    {
        "id": 602,
        "name": "Mała Rawka",
        "longitude": 49.906024,
        "latitude": 19.824843
    },
    {
        "id": 603,
        "name": "Moczarne",
        "longitude": 50.296187,
        "latitude": 18.367541
    },
    {
        "id": 604,
        "name": "Wielka Rawka",
        "longitude": 50.454969,
        "latitude": 18.832764
    },
    {
        "id": 605,
        "name": "Krzemieniec",
        "longitude": 50.318135,
        "latitude": 20.417289
    },
    {
        "id": 606,
        "name": "Połonina Caryńska",
        "longitude": 50.608749,
        "latitude": 19.18546
    },
    {
        "id": 607,
        "name": "Przełęcz Przysłup Caryński",
        "longitude": 50.36755,
        "latitude": 19.454761
    },
    {
        "id": 608,
        "name": "Magura Stuposiańska",
        "longitude": 50.140832,
        "latitude": 22.010529
    },
    {
        "id": 609,
        "name": "Widełki",
        "longitude": 49.763579,
        "latitude": 16.792472
    },
    {
        "id": 610,
        "name": "Jeleniowaty",
        "longitude": 50.71637,
        "latitude": 19.27426
    },
    {
        "id": 611,
        "name": "Bukowe Berdo",
        "longitude": 50.626841,
        "latitude": 18.277489
    },
    {
        "id": 612,
        "name": "Tarnawa Wyżna",
        "longitude": 49.796097,
        "latitude": 22.284763
    },
    {
        "id": 613,
        "name": "Szeroki Wierch",
        "longitude": 50.680465,
        "latitude": 17.238516
    },
    {
        "id": 614,
        "name": "Przełęcz Siodło",
        "longitude": 50.634315,
        "latitude": 20.399231
    },
    {
        "id": 615,
        "name": "Chresty",
        "longitude": 50.129595,
        "latitude": 16.250078
    },
    {
        "id": 616,
        "name": "Przełęcz Beskid",
        "longitude": 49.813758,
        "latitude": 18.102592
    },
    {
        "id": 617,
        "name": "Przełęcz Bukowska",
        "longitude": 49.853196,
        "latitude": 18.494242
    },
    {
        "id": 618,
        "name": "Halicz",
        "longitude": 50.449466,
        "latitude": 17.929903
    },
    {
        "id": 619,
        "name": "Kinczyk Bukowski",
        "longitude": 49.725701,
        "latitude": 16.978912
    },
    {
        "id": 620,
        "name": "Bukowiec",
        "longitude": 50.214287,
        "latitude": 21.433016
    },
    {
        "id": 621,
        "name": "Dwernik-Kamień",
        "longitude": 49.689435,
        "latitude": 19.771563
    },
    {
        "id": 622,
        "name": "Nasiczne",
        "longitude": 50.036378,
        "latitude": 21.652682
    },
    {
        "id": 623,
        "name": "Zatwarnica",
        "longitude": 49.907083,
        "latitude": 19.867731
    },
    {
        "id": 624,
        "name": "Hulskie",
        "longitude": 50.278626,
        "latitude": 22.020647
    },
    {
        "id": 625,
        "name": "Chmiel",
        "longitude": 50.698853,
        "latitude": 17.376794
    },
    {
        "id": 626,
        "name": "Trohaniec",
        "longitude": 50.155953,
        "latitude": 18.461808
    },
    {
        "id": 627,
        "name": "Grzbiet Otrytu",
        "longitude": 50.751603,
        "latitude": 21.607492
    },
    {
        "id": 628,
        "name": "Ostre",
        "longitude": 49.974404,
        "latitude": 21.69082
    },
    {
        "id": 629,
        "name": "Skorodne",
        "longitude": 50.607591,
        "latitude": 21.60216
    },
    {
        "id": 630,
        "name": "Hulskie",
        "longitude": 50.542359,
        "latitude": 17.126654
    },
    {
        "id": 631,
        "name": "Tworylczyk",
        "longitude": 50.664052,
        "latitude": 16.969389
    },
    {
        "id": 632,
        "name": "Moklik",
        "longitude": 49.806054,
        "latitude": 18.321546
    },
    {
        "id": 633,
        "name": "Kota nad Paniszczowem",
        "longitude": 50.596754,
        "latitude": 19.344729
    },
    {
        "id": 634,
        "name": "Łabiska",
        "longitude": 50.587788,
        "latitude": 17.704173
    },
    {
        "id": 635,
        "name": "Stożek",
        "longitude": 50.628385,
        "latitude": 21.392088
    },
    {
        "id": 636,
        "name": "Jaworniki",
        "longitude": 50.033568,
        "latitude": 21.730115
    },
    {
        "id": 637,
        "name": "Żuków",
        "longitude": 50.383848,
        "latitude": 18.456648
    },
    {
        "id": 638,
        "name": "Holnica",
        "longitude": 50.558968,
        "latitude": 20.761309
    },
    {
        "id": 639,
        "name": "Jawor",
        "longitude": 49.758149,
        "latitude": 17.385115
    },
    {
        "id": 640,
        "name": "Równia",
        "longitude": 50.392272,
        "latitude": 19.24809
    },
    {
        "id": 641,
        "name": "Kałużówka",
        "longitude": 49.734982,
        "latitude": 21.286363
    },
    {
        "id": 642,
        "name": "Babia Góra",
        "longitude": 50.615869,
        "latitude": 20.15953
    },
    {
        "id": 643,
        "name": "Kota nad Gogołowem",
        "longitude": 50.152657,
        "latitude": 20.227607
    },
    {
        "id": 644,
        "name": "Klonowa Góra",
        "longitude": 50.287571,
        "latitude": 21.082023
    },
    {
        "id": 645,
        "name": "Kamieniec",
        "longitude": 49.637985,
        "latitude": 20.866835
    },
    {
        "id": 646,
        "name": "Czarnówka",
        "longitude": 49.842367,
        "latitude": 19.498448
    },
    {
        "id": 647,
        "name": "Królewska Góra",
        "longitude": 50.560495,
        "latitude": 20.580437
    },
    {
        "id": 648,
        "name": "Prządki",
        "longitude": 49.938742,
        "latitude": 17.793711
    },
    {
        "id": 649,
        "name": "Sucha Góra",
        "longitude": 50.42801,
        "latitude": 16.748651
    },
    {
        "id": 650,
        "name": "Brzeżanka",
        "longitude": 50.591578,
        "latitude": 18.727616
    },
    {
        "id": 651,
        "name": "Chełmanka",
        "longitude": 50.753349,
        "latitude": 22.077775
    },
    {
        "id": 652,
        "name": "Kota nad Gwoździanką",
        "longitude": 50.167652,
        "latitude": 20.486922
    },
    {
        "id": 653,
        "name": "Czudec",
        "longitude": 50.218296,
        "latitude": 21.278243
    },
    {
        "id": 654,
        "name": "Kamienna",
        "longitude": 50.063715,
        "latitude": 22.145823
    },
    {
        "id": 655,
        "name": "Wilcze",
        "longitude": 49.739973,
        "latitude": 18.057806
    },
    {
        "id": 656,
        "name": "Rokitna",
        "longitude": 50.04191,
        "latitude": 16.221138
    },
    {
        "id": 657,
        "name": "Magierów",
        "longitude": 50.550667,
        "latitude": 16.873943
    },
    {
        "id": 658,
        "name": "Na Gratach",
        "longitude": 50.625254,
        "latitude": 20.341837
    },
    {
        "id": 659,
        "name": "Nowa Wieś",
        "longitude": 49.968698,
        "latitude": 22.087363
    },
    {
        "id": 660,
        "name": "Domaradz",
        "longitude": 50.064737,
        "latitude": 16.878606
    },
    {
        "id": 661,
        "name": "Bucznik",
        "longitude": 50.61904,
        "latitude": 19.038649
    },
    {
        "id": 662,
        "name": "Wierzchowina",
        "longitude": 49.949691,
        "latitude": 20.564481
    },
    {
        "id": 663,
        "name": "Czarna Góra",
        "longitude": 50.712966,
        "latitude": 20.402431
    },
    {
        "id": 664,
        "name": "kota nad Wydrną",
        "longitude": 50.197011,
        "latitude": 19.822407
    },
    {
        "id": 665,
        "name": "Grabówka",
        "longitude": 49.705089,
        "latitude": 21.249307
    },
    {
        "id": 666,
        "name": "Wincentówka",
        "longitude": 50.7443,
        "latitude": 22.359743
    },
    {
        "id": 667,
        "name": "Kopacz",
        "longitude": 50.419954,
        "latitude": 22.364174
    },
    {
        "id": 668,
        "name": "Wroczeń",
        "longitude": 50.547706,
        "latitude": 22.252278
    },
    {
        "id": 669,
        "name": "Jasmanice",
        "longitude": 49.98762,
        "latitude": 17.265183
    },
    {
        "id": 670,
        "name": "Wapienica",
        "longitude": 50.08257,
        "latitude": 16.252079
    },
    {
        "id": 671,
        "name": "Żurawica",
        "longitude": 49.848605,
        "latitude": 16.940562
    },
    {
        "id": 672,
        "name": "Kaczmarowa",
        "longitude": 50.585284,
        "latitude": 21.444863
    },
    {
        "id": 673,
        "name": "Bukowy Garb",
        "longitude": 50.749852,
        "latitude": 21.449134
    },
    {
        "id": 674,
        "name": "kota nad Nienadową",
        "longitude": 50.472325,
        "latitude": 19.009376
    },
    {
        "id": 675,
        "name": "Kopce",
        "longitude": 50.039652,
        "latitude": 21.58427
    },
    {
        "id": 676,
        "name": "kota nad Kosztową i Laskówką",
        "longitude": 50.164637,
        "latitude": 18.919494
    },
    {
        "id": 677,
        "name": "Dynów",
        "longitude": 49.826225,
        "latitude": 22.162883
    },
    {
        "id": 678,
        "name": "Bosaczka",
        "longitude": 50.449587,
        "latitude": 19.011056
    },
    {
        "id": 679,
        "name": "Olszany",
        "longitude": 50.537714,
        "latitude": 16.216462
    },
    {
        "id": 680,
        "name": "Czerteż",
        "longitude": 49.949842,
        "latitude": 21.296102
    },
    {
        "id": 681,
        "name": "Gródek",
        "longitude": 50.438127,
        "latitude": 18.076512
    },
    {
        "id": 682,
        "name": "Ostry Dział",
        "longitude": 49.713984,
        "latitude": 20.470194
    },
    {
        "id": 683,
        "name": "Orli Kamień",
        "longitude": 50.281396,
        "latitude": 17.735485
    },
    {
        "id": 684,
        "name": "Słonny Wierch",
        "longitude": 49.928844,
        "latitude": 19.133859
    },
    {
        "id": 685,
        "name": "Słonny Wierch",
        "longitude": 49.709964,
        "latitude": 21.885734
    },
    {
        "id": 686,
        "name": "Czarny Dział",
        "longitude": 49.571012,
        "latitude": 17.224327
    },
    {
        "id": 687,
        "name": "Czulnia",
        "longitude": 49.955936,
        "latitude": 19.427551
    },
    {
        "id": 688,
        "name": "Poręba Wysoka",
        "longitude": 50.189949,
        "latitude": 16.870557
    },
    {
        "id": 689,
        "name": "Roztoka",
        "longitude": 50.693226,
        "latitude": 21.711891
    },
    {
        "id": 690,
        "name": "Szybenica",
        "longitude": 50.157407,
        "latitude": 19.291734
    },
    {
        "id": 691,
        "name": "Kopystańka",
        "longitude": 49.992441,
        "latitude": 18.108783
    },
    {
        "id": 692,
        "name": "Kopystańka Zachodnia",
        "longitude": 50.477177,
        "latitude": 18.453316
    },
    {
        "id": 693,
        "name": "Suchy Obycz",
        "longitude": 50.119561,
        "latitude": 18.196831
    },
    {
        "id": 694,
        "name": "Na Opalonym",
        "longitude": 50.713676,
        "latitude": 20.21463
    },
    {
        "id": 695,
        "name": "Truszowskie",
        "longitude": 49.946149,
        "latitude": 22.318983
    },
    {
        "id": 696,
        "name": "Brańcowa",
        "longitude": 49.863461,
        "latitude": 17.753878
    },
    {
        "id": 697,
        "name": "Kamienna Laworta",
        "longitude": 50.247071,
        "latitude": 18.405694
    },
    {
        "id": 698,
        "name": "Ostry Dział",
        "longitude": 50.007332,
        "latitude": 18.291162
    },
    {
        "id": 699,
        "name": "Smrek",
        "longitude": 49.55879,
        "latitude": 21.551354
    },
    {
        "id": 700,
        "name": "Czerniawska Kopa",
        "longitude": 50.567941,
        "latitude": 21.080756
    },
    {
        "id": 701,
        "name": "Łącznik",
        "longitude": 50.74742,
        "latitude": 18.568582
    },
    {
        "id": 702,
        "name": "Stóg Izerski",
        "longitude": 49.849603,
        "latitude": 19.250121
    },
    {
        "id": 703,
        "name": "Zajęcznik",
        "longitude": 50.390878,
        "latitude": 19.447008
    },
    {
        "id": 704,
        "name": "Sępia Góra",
        "longitude": 50.767776,
        "latitude": 21.857796
    },
    {
        "id": 705,
        "name": "Wysoka",
        "longitude": 49.6701,
        "latitude": 20.632132
    },
    {
        "id": 706,
        "name": "Dłużec",
        "longitude": 49.814826,
        "latitude": 18.058924
    },
    {
        "id": 707,
        "name": "Rozdroże pod Kamienicą",
        "longitude": 49.932702,
        "latitude": 19.020511
    },
    {
        "id": 708,
        "name": "Stara Jodła",
        "longitude": 50.341962,
        "latitude": 17.372907
    },
    {
        "id": 709,
        "name": "Rozdroże pod Świerkowcem",
        "longitude": 50.047983,
        "latitude": 20.662831
    },
    {
        "id": 710,
        "name": "Rozdroże pod Kozią Szyją",
        "longitude": 50.104647,
        "latitude": 17.300446
    },
    {
        "id": 711,
        "name": "Babia Przełęcz",
        "longitude": 50.586092,
        "latitude": 19.556791
    },
    {
        "id": 712,
        "name": "Bobrowe Skały",
        "longitude": 50.581862,
        "latitude": 16.222846
    },
    {
        "id": 713,
        "name": "Polana Izerska",
        "longitude": 50.771148,
        "latitude": 22.138566
    },
    {
        "id": 714,
        "name": "Rozdroże pod Kopą",
        "longitude": 50.242794,
        "latitude": 17.839901
    },
    {
        "id": 715,
        "name": "Rozdroże pod Cichą Równią",
        "longitude": 49.949453,
        "latitude": 17.613372
    },
    {
        "id": 716,
        "name": "Orle",
        "longitude": 49.658801,
        "latitude": 19.268525
    },
    {
        "id": 717,
        "name": "Rozdroże pod Działem Izerskim",
        "longitude": 49.66103,
        "latitude": 20.34426
    },
    {
        "id": 718,
        "name": "Przełęcz Sklarska",
        "longitude": 50.41489,
        "latitude": 17.561541
    },
    {
        "id": 719,
        "name": "Rozdroże pod Zwaliskiem",
        "longitude": 50.414276,
        "latitude": 19.49844
    },
    {
        "id": 720,
        "name": "Wysoki Kamień",
        "longitude": 49.682316,
        "latitude": 21.215087
    },
    {
        "id": 721,
        "name": "Zakręt Śmierci",
        "longitude": 50.222715,
        "latitude": 18.93435
    },
    {
        "id": 722,
        "name": "Szklarska Poręba Dolna",
        "longitude": 50.476117,
        "latitude": 20.544504
    },
    {
        "id": 723,
        "name": "Sowiniec",
        "longitude": 50.735041,
        "latitude": 19.881817
    },
    {
        "id": 724,
        "name": "Witka",
        "longitude": 50.105928,
        "latitude": 17.30978
    },
    {
        "id": 725,
        "name": "Grodziszcze",
        "longitude": 49.888707,
        "latitude": 19.712833
    },
    {
        "id": 726,
        "name": "Wysoka Stóża",
        "longitude": 49.924661,
        "latitude": 19.444484
    },
    {
        "id": 727,
        "name": "Kozub",
        "longitude": 49.996556,
        "latitude": 20.666264
    },
    {
        "id": 728,
        "name": "Wojkowa",
        "longitude": 50.569368,
        "latitude": 18.965964
    },
    {
        "id": 729,
        "name": "Świecie",
        "longitude": 50.212077,
        "latitude": 17.785945
    },
    {
        "id": 730,
        "name": "Pobiedna",
        "longitude": 50.141988,
        "latitude": 19.700334
    },
    {
        "id": 731,
        "name": "Lubań",
        "longitude": 49.749241,
        "latitude": 18.505948
    },
    {
        "id": 732,
        "name": "Bożkowice",
        "longitude": 49.754621,
        "latitude": 18.887686
    },
    {
        "id": 733,
        "name": "Zamek Czocha",
        "longitude": 49.690612,
        "latitude": 20.980641
    },
    {
        "id": 734,
        "name": "Jezioro Złotnickie - ośrodek",
        "longitude": 50.519253,
        "latitude": 17.996006
    },
    {
        "id": 735,
        "name": "Złoty Stok",
        "longitude": 50.431426,
        "latitude": 21.453769
    },
    {
        "id": 736,
        "name": "Biedrzychowice",
        "longitude": 49.558574,
        "latitude": 18.411991
    },
    {
        "id": 737,
        "name": "Giebułtów",
        "longitude": 49.573696,
        "latitude": 17.819592
    },
    {
        "id": 738,
        "name": "Kamień",
        "longitude": 50.077168,
        "latitude": 21.469482
    },
    {
        "id": 739,
        "name": "Las Kaoliński",
        "longitude": 50.200713,
        "latitude": 18.822738
    },
    {
        "id": 740,
        "name": "Zamek Gryf",
        "longitude": 50.267236,
        "latitude": 16.796471
    },
    {
        "id": 741,
        "name": "Rębiszów",
        "longitude": 50.740436,
        "latitude": 20.960627
    },
    {
        "id": 742,
        "name": "Gęsia Góra",
        "longitude": 50.031826,
        "latitude": 20.328379
    },
    {
        "id": 743,
        "name": "Lubomierz",
        "longitude": 50.716064,
        "latitude": 20.721
    },
    {
        "id": 744,
        "name": "Oleszna Podgórska",
        "longitude": 49.842202,
        "latitude": 16.658434
    },
    {
        "id": 745,
        "name": "Maciejowiec",
        "longitude": 49.783447,
        "latitude": 21.214926
    },
    {
        "id": 746,
        "name": "Wietrznik",
        "longitude": 50.604403,
        "latitude": 17.96132
    },
    {
        "id": 747,
        "name": "Marczów",
        "longitude": 50.659722,
        "latitude": 16.368627
    },
    {
        "id": 748,
        "name": "Kołodziej",
        "longitude": 49.898606,
        "latitude": 19.300753
    },
    {
        "id": 749,
        "name": "Kopka",
        "longitude": 50.336214,
        "latitude": 18.950022
    },
    {
        "id": 750,
        "name": "Podskale",
        "longitude": 50.201469,
        "latitude": 17.14099
    },
    {
        "id": 751,
        "name": "Płóczki Dolne",
        "longitude": 50.008053,
        "latitude": 20.259744
    },
    {
        "id": 752,
        "name": "Radłówka",
        "longitude": 50.233897,
        "latitude": 19.912204
    },
    {
        "id": 753,
        "name": "Lwówek Śląski",
        "longitude": 50.595637,
        "latitude": 16.442499
    },
    {
        "id": 754,
        "name": "Schronisko PTTK Hala Szrenicka",
        "longitude": 50.290609,
        "latitude": 21.170104
    },
    {
        "id": 755,
        "name": "Szrenica",
        "longitude": 50.712743,
        "latitude": 20.704718
    },
    {
        "id": 756,
        "name": "Przełęcz Mokra",
        "longitude": 50.223598,
        "latitude": 19.266023
    },
    {
        "id": 757,
        "name": "Wysoki Most",
        "longitude": 50.55354,
        "latitude": 17.555434
    },
    {
        "id": 758,
        "name": "Schronisko PTTK Hala pod Łabskim Szczytem",
        "longitude": 50.71179,
        "latitude": 22.056517
    },
    {
        "id": 759,
        "name": "Czarcia Ambona",
        "longitude": 50.668337,
        "latitude": 19.438103
    },
    {
        "id": 760,
        "name": "Przełęcz pod Śmielcem",
        "longitude": 50.213698,
        "latitude": 16.477518
    },
    {
        "id": 761,
        "name": "Trzy Jawory",
        "longitude": 50.479025,
        "latitude": 20.838208
    },
    {
        "id": 762,
        "name": "Schronisko PTTK Kochanówka Wodospad Szklarki",
        "longitude": 50.736285,
        "latitude": 21.309995
    },
    {
        "id": 763,
        "name": "Michałowice",
        "longitude": 49.876251,
        "latitude": 20.939748
    },
    {
        "id": 764,
        "name": "Rozdroże pod Grzybowcem",
        "longitude": 50.731088,
        "latitude": 19.140832
    },
    {
        "id": 765,
        "name": "Rozdroże pod Śmielcem",
        "longitude": 50.012567,
        "latitude": 22.115347
    },
    {
        "id": 766,
        "name": "Hutniczy Grzbiet",
        "longitude": 50.265589,
        "latitude": 16.56957
    },
    {
        "id": 767,
        "name": "Petrovka",
        "longitude": 50.746974,
        "latitude": 17.771644
    },
    {
        "id": 768,
        "name": "Schronisko PTTK Odrodzenie Przełęcz Karkonoska",
        "longitude": 50.311377,
        "latitude": 18.601098
    },
    {
        "id": 769,
        "name": "Słonecznik",
        "longitude": 50.404266,
        "latitude": 21.879988
    },
    {
        "id": 770,
        "name": "Spalona Strażnica",
        "longitude": 50.161114,
        "latitude": 16.222369
    },
    {
        "id": 771,
        "name": "Schronisko PTTK Strzecha Akademicka",
        "longitude": 50.696956,
        "latitude": 17.469618
    },
    {
        "id": 772,
        "name": "Polana",
        "longitude": 49.862782,
        "latitude": 17.488817
    },
    {
        "id": 773,
        "name": "Przełęcz pod Śnieżką",
        "longitude": 49.915425,
        "latitude": 17.213278
    },
    {
        "id": 774,
        "name": "Śnieżka",
        "longitude": 49.555721,
        "latitude": 19.297818
    },
    {
        "id": 775,
        "name": "Schronisko PTTK Nad Łomniczką",
        "longitude": 49.869624,
        "latitude": 20.176745
    },
    {
        "id": 776,
        "name": "Karpacz Górny",
        "longitude": 49.921278,
        "latitude": 17.304217
    },
    {
        "id": 777,
        "name": "Przełączka",
        "longitude": 49.716304,
        "latitude": 19.908832
    },
    {
        "id": 778,
        "name": "Kapliczka św. Anny",
        "longitude": 49.960581,
        "latitude": 16.23551
    },
    {
        "id": 779,
        "name": "Przełęcz 590 m",
        "longitude": 49.79398,
        "latitude": 18.092854
    },
    {
        "id": 780,
        "name": "Borowice",
        "longitude": 50.674323,
        "latitude": 20.200466
    },
    {
        "id": 781,
        "name": "Przesieka - Złoty Widok",
        "longitude": 50.327796,
        "latitude": 20.589469
    },
    {
        "id": 782,
        "name": "Przełęcz L. Różyciego",
        "longitude": 50.460928,
        "latitude": 18.003099
    },
    {
        "id": 783,
        "name": "Zachełmie",
        "longitude": 50.633361,
        "latitude": 19.69355
    },
    {
        "id": 784,
        "name": "Żelazny Mostek",
        "longitude": 50.376218,
        "latitude": 16.343944
    },
    {
        "id": 785,
        "name": "Schronisko PTTK Chojnik",
        "longitude": 49.923245,
        "latitude": 18.050213
    },
    {
        "id": 786,
        "name": "Jagniątków- pn",
        "longitude": 50.674064,
        "latitude": 21.740979
    },
    {
        "id": 787,
        "name": "Wilcza Poręba",
        "longitude": 50.325881,
        "latitude": 18.42565
    },
    {
        "id": 788,
        "name": "TPG Sowia Przełęcz",
        "longitude": 50.570053,
        "latitude": 17.908169
    },
    {
        "id": 789,
        "name": "Skalny Stół",
        "longitude": 49.856313,
        "latitude": 17.94089
    },
    {
        "id": 790,
        "name": "Leśniczówka Jedlinki",
        "longitude": 49.579124,
        "latitude": 19.836646
    },
    {
        "id": 791,
        "name": "Żółta Droga",
        "longitude": 50.170338,
        "latitude": 16.548672
    },